[{"iata":"AAA","icao":"NTGA","name":"Anaa Airport","city":"Anaa","country":"PF","lat":-17.3526,"lng":-145.509995,"tz":"Pacific/Tahiti"},{"iata":"AAC","icao":"HEAR","name":"El Arish International Airport","city":"El Arish","country":"EG","lat":31.055324,"lng":33.827964,"tz":"Africa/Cairo"},{"iata":"AAE","icao":"DABB","name":"Annaba Rabah Bitat Airport","city":"Annaba","country":"DZ","lat":36.826781,"lng":7.81334,"tz":"Africa/Algiers"},{"iata":"AAL","icao":"EKYT","name":"Aalborg Airport","city":"Aalborg","country":"DK","lat":57.094763,"lng":9.84993,"tz":"Europe/Copenhagen"},{"iata":"AAN","icao":"OMAL","name":"Al Ain International Airport","city":"Al Ain","country":"AE","lat":24.2617,"lng":55.6092,"tz":"Asia/Dubai"},{"iata":"AAP","icao":"WALS","name":"Aji Pangeran Tumenggung Pranoto International Airport","city":"Samarinda","country":"ID","lat":-0.374478,"lng":117.250128,"tz":"Asia/Makassar"},{"iata":"AAQ","icao":"URKA","name":"Anapa Vityazevo Airport","city":"Krasnyi Kurgan","country":"RU","lat":45.002102,"lng":37.347301,"tz":"Europe/Moscow"},{"iata":"AAR","icao":"EKAH","name":"Aarhus Airport","city":"Aarhus","country":"DK","lat":56.303331,"lng":10.618286,"tz":"Europe/Copenhagen"},{"iata":"AAT","icao":"ZWAT","name":"Altay Xuedu Airport","city":"Altay","country":"CN","lat":47.749886,"lng":88.085808,"tz":"Asia/Urumqi"},{"iata":"AAX","icao":"SBAX","name":"Romeu Zema Airport","city":"Araxá","country":"BR","lat":-19.5632,"lng":-46.9604,"tz":"America/Sao_Paulo"},{"iata":"AAY","icao":"OYGD","name":"Al Ghaydah International Airport","city":"Al Ghaydah","country":"YE","lat":16.193341,"lng":52.174186,"tz":"Asia/Aden"},{"iata":"ABA","icao":"UNAA","name":"Abakan International Airport","city":"Abakan","country":"RU","lat":53.740002,"lng":91.385002,"tz":"Asia/Krasnoyarsk"},{"iata":"ABB","icao":"DNAS","name":"Asaba International Airport","city":"Asaba","country":"NG","lat":6.204167,"lng":6.665278,"tz":"Africa/Lagos"},{"iata":"ABD","icao":"OIAA","name":"Abadan Ayatollah Jami International Airport","city":"Abadan","country":"IR","lat":30.367887,"lng":48.230075,"tz":"Asia/Tehran"},{"iata":"ABE","icao":"KABE","name":"Lehigh Valley International Airport","city":"Allentown/Bethlehem","country":"US","lat":40.651773,"lng":-75.442797,"tz":"America/New_York"},{"iata":"ABI","icao":"KABI","name":"Abilene Regional Airport","city":"Abilene","country":"US","lat":32.411301,"lng":-99.6819,"tz":"America/Chicago"},{"iata":"ABJ","icao":"DIAP","name":"Félix-Houphouët-Boigny International Airport","city":"Abidjan","country":"CI","lat":5.26139,"lng":-3.92629,"tz":"Africa/Abidjan"},{"iata":"ABK","icao":"HAKD","name":"Kebri Dahar Airport","city":"Kebri Dahar","country":"ET","lat":6.732577,"lng":44.241339,"tz":"Africa/Addis_Ababa"},{"iata":"ABL","icao":"PAFM","name":"Ambler Airport","city":"Ambler","country":"US","lat":67.105529,"lng":-157.855339,"tz":"America/Anchorage"},{"iata":"ABQ","icao":"KABQ","name":"Albuquerque International Sunport","city":"Albuquerque","country":"US","lat":35.039976,"lng":-106.608925,"tz":"America/Denver"},{"iata":"ABR","icao":"KABR","name":"Aberdeen Regional Airport","city":"Aberdeen","country":"US","lat":45.4491,"lng":-98.421799,"tz":"America/Chicago"},{"iata":"ABS","icao":"HEBL","name":"Abu Simbel Airport","city":"Abu Simbel","country":"EG","lat":22.375924,"lng":31.611734,"tz":"Africa/Cairo"},{"iata":"ABT","icao":"OEBA","name":"King Saud Bin Abdulaziz (Al Baha) Airport","city":"Al-Baha","country":"SA","lat":20.298506,"lng":41.636153,"tz":"Asia/Riyadh"},{"iata":"ABV","icao":"DNAA","name":"Nnamdi Azikiwe International Airport","city":"Abuja","country":"NG","lat":9.00679,"lng":7.26317,"tz":"Africa/Lagos"},{"iata":"ABX","icao":"YMAY","name":"Albury Airport","city":"East Albury","country":"AU","lat":-36.066758,"lng":146.959148,"tz":"Australia/Sydney"},{"iata":"ABY","icao":"KABY","name":"Southwest Georgia Regional Airport","city":"Albany","country":"US","lat":31.532946,"lng":-84.196215,"tz":"America/New_York"},{"iata":"ABZ","icao":"EGPD","name":"Aberdeen International Airport","city":"Aberdeen","country":"GB","lat":57.2019,"lng":-2.19778,"tz":"Europe/London"},{"iata":"ACA","icao":"MMAA","name":"General Juan N. Álvarez International Airport","city":"Acapulco","country":"MX","lat":16.757126,"lng":-99.753113,"tz":"America/Mexico_City"},{"iata":"ACC","icao":"DGAA","name":"Kotoka International Airport","city":"Accra","country":"GH","lat":5.60519,"lng":-0.166786,"tz":"Africa/Accra"},{"iata":"ACE","icao":"GCRR","name":"César Manrique-Lanzarote Airport","city":"San Bartolomé","country":"ES","lat":28.945499,"lng":-13.6052,"tz":"Atlantic/Canary"},{"iata":"ACH","icao":"LSZR","name":"Sankt Gallen Altenrhein Airport","city":"St. Gallen","country":"CH","lat":47.485001,"lng":9.56077,"tz":"Europe/Zurich"},{"iata":"ACI","icao":"EGJA","name":"Alderney Airport","city":"Saint Anne","country":"GG","lat":49.706104,"lng":-2.21472,"tz":"Europe/Guernsey"},{"iata":"ACK","icao":"KACK","name":"Nantucket Memorial Airport","city":"Nantucket","country":"US","lat":41.253101,"lng":-70.060204,"tz":"America/New_York"},{"iata":"ACT","icao":"KACT","name":"Waco Regional Airport","city":"Waco","country":"US","lat":31.6113,"lng":-97.230499,"tz":"America/Chicago"},{"iata":"ACV","icao":"KACV","name":"California Redwood Coast-Humboldt County Airport","city":"Arcata/Eureka","country":"US","lat":40.978101,"lng":-124.109,"tz":"America/Los_Angeles"},{"iata":"ACX","icao":"ZUYI","name":"Xingyi Wanfenglin Airport","city":"Xingyi","country":"CN","lat":25.083423,"lng":104.960804,"tz":"Asia/Shanghai"},{"iata":"ACY","icao":"KACY","name":"Atlantic City International Airport","city":"Atlantic City","country":"US","lat":39.456201,"lng":-74.577511,"tz":"America/New_York"},{"iata":"ADA","icao":"LTAF","name":"Adana Şakirpaşa Airport","city":"Seyhan","country":"TR","lat":36.982201,"lng":35.280399,"tz":"Europe/Istanbul"},{"iata":"ADB","icao":"LTBJ","name":"Adnan Menderes International Airport","city":"Gaziemir","country":"TR","lat":38.2924,"lng":27.157,"tz":"Europe/Istanbul"},{"iata":"ADD","icao":"HAAB","name":"Addis Ababa Bole International Airport","city":"Addis Ababa","country":"ET","lat":8.97789,"lng":38.799301,"tz":"Africa/Addis_Ababa"},{"iata":"ADE","icao":"OYAA","name":"Aden International Airport","city":"Aden","country":"YE","lat":12.829564,"lng":45.029976,"tz":"Asia/Aden"},{"iata":"ADF","icao":"LTCP","name":"Adıyaman Airport","city":"Adıyaman","country":"TR","lat":37.7314,"lng":38.468899,"tz":"Europe/Istanbul"},{"iata":"ADJ","icao":"OJAM","name":"Marka International (Amman Civil) Airport","city":"Amman","country":"JO","lat":31.9727,"lng":35.9916,"tz":"Asia/Amman"},{"iata":"ADK","icao":"PADK","name":"Adak Airport","city":"Adak","country":"US","lat":51.883564,"lng":-176.642783,"tz":"America/Adak"},{"iata":"ADL","icao":"YPAD","name":"Adelaide International Airport","city":"Adelaide","country":"AU","lat":-34.947512,"lng":138.533393,"tz":"Australia/Adelaide"},{"iata":"ADQ","icao":"PADQ","name":"Kodiak Airport","city":"Kodiak","country":"US","lat":57.75,"lng":-152.494003,"tz":"America/Anchorage"},{"iata":"ADU","icao":"OITL","name":"Ardabil Airport","city":"Ardabil","country":"IR","lat":38.325699,"lng":48.4244,"tz":"Asia/Tehran"},{"iata":"ADZ","icao":"SKSP","name":"Gustavo Rojas Pinilla International Airport","city":"San Andrés","country":"CO","lat":12.5836,"lng":-81.7112,"tz":"America/Bogota"},{"iata":"AEB","icao":"ZGBS","name":"Baise (Bose) Bama Airport","city":"Baise (Tianyang)","country":"CN","lat":23.7206,"lng":106.959999,"tz":"Asia/Shanghai"},{"iata":"AEH","icao":"FTTC","name":"Abeche Airport","city":"Abeche","country":"TD","lat":13.847,"lng":20.844299,"tz":"Africa/Ndjamena"},{"iata":"AEP","icao":"SABE","name":"Aeroparque Jorge Newbery","city":"Buenos Aires","country":"AR","lat":-34.559419,"lng":-58.415536,"tz":"America/Argentina/Buenos_Aires"},{"iata":"AER","icao":"URSS","name":"Sochi International Airport","city":"Sochi","country":"RU","lat":43.449902,"lng":39.9566,"tz":"Europe/Moscow"},{"iata":"AES","icao":"ENAL","name":"Ålesund Airport","city":"Ålesund","country":"NO","lat":62.560443,"lng":6.110845,"tz":"Europe/Oslo"},{"iata":"AEU","icao":"OIBA","name":"Abu Musa Island Airport","city":"Abu Musa","country":"IR","lat":25.8757,"lng":55.033001,"tz":"Asia/Tehran"},{"iata":"AEX","icao":"KAEX","name":"Alexandria International Airport","city":"Alexandria","country":"US","lat":31.325828,"lng":-92.546702,"tz":"America/Chicago"},{"iata":"AEY","icao":"BIAR","name":"Akureyri International Airport","city":"Akureyri","country":"IS","lat":65.656573,"lng":-18.072018,"tz":"Atlantic/Reykjavik"},{"iata":"AFA","icao":"SAMR","name":"Suboficial Ay Santiago Germano Airport","city":"San Rafael","country":"AR","lat":-34.588299,"lng":-68.4039,"tz":"America/Argentina/Mendoza"},{"iata":"AFL","icao":"SBAT","name":"Piloto Osvaldo Marques Dias Airport","city":"Alta Floresta","country":"BR","lat":-9.866389,"lng":-56.106298,"tz":"America/Cuiaba"},{"iata":"AFZ","icao":"OIMS","name":"Sabzevar National Airport","city":"Sabzevar","country":"IR","lat":36.168098,"lng":57.5952,"tz":"Asia/Tehran"},{"iata":"AGA","icao":"GMAD","name":"Al Massira Airport","city":"Agadir (Temsia)","country":"MA","lat":30.322478,"lng":-9.412003,"tz":"Africa/Casablanca"},{"iata":"AGH","icao":"ESTA","name":"Ängelholm-Helsingborg Airport","city":"Ängelholm","country":"SE","lat":56.296101,"lng":12.8471,"tz":"Europe/Stockholm"},{"iata":"AGP","icao":"LEMG","name":"Málaga-Costa del Sol Airport","city":"Málaga","country":"ES","lat":36.6749,"lng":-4.49911,"tz":"Europe/Madrid"},{"iata":"AGR","icao":"VIAG","name":"Agra Airport / Agra Air Force Station","city":"Agra","country":"IN","lat":27.157975,"lng":77.961025,"tz":"Asia/Kolkata"},{"iata":"AGS","icao":"KAGS","name":"Augusta Regional At Bush Field","city":"Augusta","country":"US","lat":33.3699,"lng":-81.9645,"tz":"America/New_York"},{"iata":"AGT","icao":"SGES","name":"Guaraní International Airport","city":"Ciudad del Este","country":"PY","lat":-25.457186,"lng":-54.839544,"tz":"America/Asuncion"},{"iata":"AGU","icao":"MMAS","name":"Aguascalientes International Airport","city":"Aguascalientes","country":"MX","lat":21.699589,"lng":-102.318372,"tz":"America/Mexico_City"},{"iata":"AGX","icao":"VOAT","name":"Agatti Airport","city":"Agatti","country":"IN","lat":10.8237,"lng":72.176003,"tz":"Asia/Kolkata"},{"iata":"AHA","icao":"VEAP","name":"Maa Mahamaya Airport","city":"Ambikapur","country":"IN","lat":22.98753,"lng":83.19612,"tz":"Asia/Kolkata"},{"iata":"AHB","icao":"OEAB","name":"Abha International Airport","city":"Abha","country":"SA","lat":18.2404,"lng":42.656601,"tz":"Asia/Riyadh"},{"iata":"AHE","icao":"NTHE","name":"Ahe Airport","city":"Ahe Atoll","country":"PF","lat":-14.4281,"lng":-146.257004,"tz":"Pacific/Tahiti"},{"iata":"AHO","icao":"LIEA","name":"Alghero-Fertilia Airport","city":"Alghero","country":"IT","lat":40.632099,"lng":8.29077,"tz":"Europe/Rome"},{"iata":"AIA","icao":"KAIA","name":"Alliance Municipal Airport","city":"Alliance","country":"US","lat":42.052543,"lng":-102.803965,"tz":"America/Denver"},{"iata":"AIN","icao":"PAWI","name":"Wainwright Airport","city":"Wainwright","country":"US","lat":70.638,"lng":-159.994995,"tz":"America/Anchorage"},{"iata":"AJA","icao":"LFKJ","name":"Ajaccio Napoléon Bonaparte airport","city":"Ajaccio","country":"FR","lat":41.923599,"lng":8.80292,"tz":"Europe/Paris"},{"iata":"AJF","icao":"OESK","name":"Al-Jawf International Airport","city":"Al-Jawf","country":"SA","lat":29.783301,"lng":40.100905,"tz":"Asia/Riyadh"},{"iata":"AJI","icao":"LTCO","name":"Ağrı Airport","city":"Ağrı","country":"TR","lat":39.655642,"lng":43.025742,"tz":"Europe/Istanbul"},{"iata":"AJL","icao":"VELP","name":"Lengpui Airport","city":"Aizawl (Lengpui)","country":"IN","lat":23.840599,"lng":92.619698,"tz":"Asia/Kolkata"},{"iata":"AJN","icao":"FMCV","name":"Ouani Airport","city":"Ouani","country":"KM","lat":-12.131047,"lng":44.430044,"tz":"Indian/Comoro"},{"iata":"AJR","icao":"ESNX","name":"Arvidsjaur Airport","city":"Arvidsjaur","country":"SE","lat":65.590302,"lng":19.2819,"tz":"Europe/Stockholm"},{"iata":"AJU","icao":"SBAR","name":"Aracaju - Santa Maria Airport","city":"Aracaju","country":"BR","lat":-10.98394,"lng":-37.072873,"tz":"America/Maceio"},{"iata":"AKF","icao":"HLKF","name":"Kufra Airport","city":"Kufra","country":"LY","lat":24.178699,"lng":23.313999,"tz":"Africa/Tripoli"},{"iata":"AKJ","icao":"RJEC","name":"Asahikawa Airport","city":"Higashikagura","country":"JP","lat":43.670799,"lng":142.447006,"tz":"Asia/Tokyo"},{"iata":"AKL","icao":"NZAA","name":"Auckland International Airport","city":"Auckland","country":"NZ","lat":-37.01199,"lng":174.786331,"tz":"Pacific/Auckland"},{"iata":"AKN","icao":"PAKN","name":"King Salmon Airport","city":"King Salmon","country":"US","lat":58.677845,"lng":-156.651965,"tz":"America/Anchorage"},{"iata":"AKP","icao":"PAKP","name":"Anaktuvuk Pass Airport","city":"Anaktuvuk Pass","country":"US","lat":68.133598,"lng":-151.742996,"tz":"America/Anchorage"},{"iata":"AKR","icao":"DNAK","name":"Akure Airport","city":"Akure","country":"NG","lat":7.24674,"lng":5.30101,"tz":"Africa/Lagos"},{"iata":"AKU","icao":"ZWAK","name":"Aksu Hongqipo Airport","city":"Aksu (Onsu)","country":"CN","lat":41.262501,"lng":80.291702,"tz":"Asia/Urumqi"},{"iata":"AKX","icao":"UATT","name":"Aktobe International Airport","city":"Aktobe","country":"KZ","lat":50.248116,"lng":57.204144,"tz":"Asia/Aqtobe"},{"iata":"AKY","icao":"VYSW","name":"Sittwe Airport","city":"Sittwe","country":"MM","lat":20.133165,"lng":92.870693,"tz":"Asia/Yangon"},{"iata":"ALA","icao":"UAAA","name":"Almaty International Airport","city":"Almaty","country":"KZ","lat":43.354267,"lng":77.042828,"tz":"Asia/Almaty"},{"iata":"ALB","icao":"KALB","name":"Albany International Airport","city":"Albany","country":"US","lat":42.748299,"lng":-73.801697,"tz":"America/New_York"},{"iata":"ALC","icao":"LEAL","name":"Alicante-Elche Miguel Hernández Airport","city":"Alicante","country":"ES","lat":38.2822,"lng":-0.558156,"tz":"Europe/Madrid"},{"iata":"ALF","icao":"ENAT","name":"Alta Airport","city":"Alta","country":"NO","lat":69.976097,"lng":23.3717,"tz":"Europe/Oslo"},{"iata":"ALG","icao":"DAAG","name":"Houari Boumediene Airport","city":"Algiers","country":"DZ","lat":36.693886,"lng":3.214531,"tz":"Africa/Algiers"},{"iata":"ALH","icao":"YABA","name":"Albany Airport","city":"Albany","country":"AU","lat":-34.943333,"lng":117.808889,"tz":"Australia/Perth"},{"iata":"ALO","icao":"KALO","name":"Waterloo Regional Airport","city":"Waterloo","country":"US","lat":42.557098,"lng":-92.400299,"tz":"America/Chicago"},{"iata":"ALP","icao":"OSAP","name":"Aleppo International Airport","city":"Aleppo","country":"SY","lat":36.181262,"lng":37.226869,"tz":"Asia/Damascus"},{"iata":"ALS","icao":"KALS","name":"San Luis Valley Regional Airport/Bergman Field","city":"Alamosa","country":"US","lat":37.434898,"lng":-105.866997,"tz":"America/Denver"},{"iata":"ALW","icao":"KALW","name":"Walla Walla Regional Airport","city":"Walla Walla","country":"US","lat":46.094898,"lng":-118.288002,"tz":"America/Los_Angeles"},{"iata":"AMA","icao":"KAMA","name":"Rick Husband Amarillo International Airport","city":"Amarillo","country":"US","lat":35.217857,"lng":-101.706444,"tz":"America/Chicago"},{"iata":"AMD","icao":"VAAH","name":"Sardar Vallabh Patel International Airport","city":"Ahmedabad","country":"IN","lat":23.0772,"lng":72.634697,"tz":"Asia/Kolkata"},{"iata":"AMH","icao":"HAAM","name":"Arba Minch Airport","city":"Arba Minch","country":"ET","lat":6.03939,"lng":37.5905,"tz":"Africa/Addis_Ababa"},{"iata":"AMM","icao":"OJAI","name":"Queen Alia International Airport","city":"Amman","country":"JO","lat":31.722601,"lng":35.993198,"tz":"Asia/Amman"},{"iata":"AMQ","icao":"WAPP","name":"Pattimura International Airport","city":"Ambon","country":"ID","lat":-3.71026,"lng":128.089005,"tz":"Asia/Jayapura"},{"iata":"AMS","icao":"EHAM","name":"Amsterdam Airport Schiphol","city":"Amsterdam","country":"NL","lat":52.308601,"lng":4.76389,"tz":"Europe/Amsterdam"},{"iata":"AMV","icao":"ULDD","name":"Amderma Airport","city":"Amderma","country":"RU","lat":69.763298,"lng":61.5564,"tz":"Europe/Moscow"},{"iata":"ANC","icao":"PANC","name":"Ted Stevens Anchorage International Airport","city":"Anchorage","country":"US","lat":61.179004,"lng":-149.992561,"tz":"America/Anchorage"},{"iata":"ANF","icao":"SCFA","name":"Andrés Sabella Gálvez International Airport","city":"Antofagasta","country":"CL","lat":-23.445274,"lng":-70.445232,"tz":"America/Santiago"},{"iata":"ANI","icao":"PANI","name":"Aniak Airport","city":"Aniak","country":"US","lat":61.5816,"lng":-159.542999,"tz":"America/Anchorage"},{"iata":"ANR","icao":"EBAW","name":"Antwerp International Airport (Deurne)","city":"Antwerp","country":"BE","lat":51.190667,"lng":4.463153,"tz":"Europe/Brussels"},{"iata":"ANU","icao":"TAPA","name":"V. C. Bird International Airport","city":"Osbourn","country":"AG","lat":17.1367,"lng":-61.792702,"tz":"America/Antigua"},{"iata":"ANV","icao":"PANV","name":"Anvik Airport","city":"Anvik","country":"US","lat":62.646702,"lng":-160.190994,"tz":"America/Anchorage"},{"iata":"ANX","icao":"ENAN","name":"Andøya Airport, Andenes","city":"Andenes","country":"NO","lat":69.295193,"lng":16.139379,"tz":"Europe/Oslo"},{"iata":"AOE","icao":"LTBY","name":"Hasan Polatkan Airport","city":"Eskişehir","country":"TR","lat":39.811644,"lng":30.519268,"tz":"Europe/Istanbul"},{"iata":"AOG","icao":"ZYAS","name":"Anshan Teng'ao Airport / Anshan Air Base","city":"Anshan","country":"CN","lat":41.105301,"lng":122.853996,"tz":"Asia/Shanghai"},{"iata":"AOI","icao":"LIPY","name":"Marche Airport","city":"Falconara Marittima (AN)","country":"IT","lat":43.616299,"lng":13.3623,"tz":"Europe/Rome"},{"iata":"AOJ","icao":"RJSA","name":"Aomori Airport","city":"Aomori","country":"JP","lat":40.733777,"lng":140.689477,"tz":"Asia/Tokyo"},{"iata":"AOK","icao":"LGKP","name":"Karpathos Airport","city":"Karpathos Island","country":"GR","lat":35.421398,"lng":27.146,"tz":"Europe/Athens"},{"iata":"AOO","icao":"KAOO","name":"Altoona Blair County Airport","city":"Altoona","country":"US","lat":40.296398,"lng":-78.32,"tz":"America/New_York"},{"iata":"AOR","icao":"WMKA","name":"Sultan Abdul Halim Airport","city":"Alor Satar","country":"MY","lat":6.18967,"lng":100.398003,"tz":"Asia/Kuala_Lumpur"},{"iata":"APL","icao":"FQNP","name":"Nampula Airport","city":"Nampula","country":"MZ","lat":-15.1056,"lng":39.281799,"tz":"Africa/Maputo"},{"iata":"APN","icao":"KAPN","name":"Alpena County Regional Airport","city":"Alpena","country":"US","lat":45.078098,"lng":-83.560303,"tz":"America/Detroit"},{"iata":"APO","icao":"SKLC","name":"Antonio Roldán Betancur Airport","city":"Carepa","country":"CO","lat":7.81196,"lng":-76.7164,"tz":"America/Bogota"},{"iata":"APW","icao":"NSFA","name":"Faleolo International Airport","city":"Apia","country":"WS","lat":-13.83,"lng":-172.007996,"tz":"Pacific/Apia"},{"iata":"AQA","icao":"SBAQ","name":"Araraquara Airport","city":"Araraquara","country":"BR","lat":-21.812,"lng":-48.132999,"tz":"America/Sao_Paulo"},{"iata":"AQG","icao":"ZSAQ","name":"Anqing Tianzhushan Airport / Anqing North Air Base","city":"Anqing","country":"CN","lat":30.582199,"lng":117.050003,"tz":"Asia/Shanghai"},{"iata":"AQI","icao":"OEPA","name":"Qaisumah–Hafar Al-Batin International Airport","city":"Qaisumah","country":"SA","lat":28.335726,"lng":46.127108,"tz":"Asia/Riyadh"},{"iata":"AQJ","icao":"OJAQ","name":"King Hussein International Airport","city":"Aqaba","country":"JO","lat":29.611601,"lng":35.018101,"tz":"Asia/Amman"},{"iata":"AQP","icao":"SPQU","name":"Rodríguez Ballón International Airport","city":"Arequipa","country":"PE","lat":-16.340786,"lng":-71.569485,"tz":"America/Lima"},{"iata":"ARC","icao":"PARC","name":"Arctic Village Airport","city":"Arctic Village","country":"US","lat":68.1147,"lng":-145.578995,"tz":"America/Anchorage"},{"iata":"ARH","icao":"ULAA","name":"Talagi Airport","city":"Archangelsk","country":"RU","lat":64.600304,"lng":40.716702,"tz":"Europe/Moscow"},{"iata":"ARI","icao":"SCAR","name":"Chacalluta International Airport","city":"Arica","country":"CL","lat":-18.348499,"lng":-70.338699,"tz":"America/Santiago"},{"iata":"ARK","icao":"HTAR","name":"Arusha Airport","city":"Arusha","country":"TZ","lat":-3.36779,"lng":36.633301,"tz":"Africa/Dar_es_Salaam"},{"iata":"ARM","icao":"YARM","name":"Armidale Airport","city":"Armidale","country":"AU","lat":-30.528099,"lng":151.617004,"tz":"Australia/Sydney"},{"iata":"ARN","icao":"ESSA","name":"Stockholm-Arlanda Airport","city":"Stockholm","country":"SE","lat":59.64849,"lng":17.928829,"tz":"Europe/Stockholm"},{"iata":"ART","icao":"KART","name":"Watertown International Airport","city":"Watertown","country":"US","lat":43.991901,"lng":-76.021698,"tz":"America/New_York"},{"iata":"ARU","icao":"SBAU","name":"Araçatuba Airport","city":"Araçatuba","country":"BR","lat":-21.141479,"lng":-50.424575,"tz":"America/Sao_Paulo"},{"iata":"ARW","icao":"LRAR","name":"Arad International Airport","city":"Arad","country":"RO","lat":46.176136,"lng":21.264322,"tz":"Europe/Bucharest"},{"iata":"ASB","icao":"UTAA","name":"Ashgabat International Airport","city":"Ashgabat","country":"TM","lat":37.986801,"lng":58.361,"tz":"Asia/Ashgabat"},{"iata":"ASD","icao":"MYAF","name":"Andros Town Airport","city":"Andros Town","country":"BS","lat":24.697901,"lng":-77.795601,"tz":"America/Nassau"},{"iata":"ASE","icao":"KASE","name":"Aspen-Pitkin County Airport (Sardy Field)","city":"Aspen","country":"US","lat":39.223202,"lng":-106.869003,"tz":"America/Denver"},{"iata":"ASF","icao":"URWA","name":"Astrakhan Narimanovo Boris M. Kustodiev International Airport","city":"Astrakhan","country":"RU","lat":46.282843,"lng":48.010511,"tz":"Europe/Astrakhan"},{"iata":"ASI","icao":"FHAW","name":"RAF Ascension Island","city":"Cat Hill","country":"SH","lat":-7.970179,"lng":-14.392744,"tz":"Atlantic/St_Helena"},{"iata":"ASJ","icao":"RJKA","name":"Amami Airport","city":"Amami","country":"JP","lat":28.430599,"lng":129.712997,"tz":"Asia/Tokyo"},{"iata":"ASM","icao":"HHAS","name":"Asmara International Airport","city":"Asmara","country":"ER","lat":15.2919,"lng":38.910702,"tz":"Africa/Asmara"},{"iata":"ASO","icao":"HASO","name":"Asosa Airport","city":"Asosa","country":"ET","lat":10.0185,"lng":34.5863,"tz":"Africa/Addis_Ababa"},{"iata":"ASP","icao":"YBAS","name":"Alice Springs Airport","city":"Alice Springs","country":"AU","lat":-23.806588,"lng":133.903427,"tz":"Australia/Darwin"},{"iata":"ASR","icao":"LTAU","name":"Kayseri Erkilet International Airport","city":"Kayseri","country":"TR","lat":38.770401,"lng":35.495399,"tz":"Europe/Istanbul"},{"iata":"ASU","icao":"SGAS","name":"Silvio Pettirossi International Airport","city":"Asunción","country":"PY","lat":-25.240156,"lng":-57.519227,"tz":"America/Asuncion"},{"iata":"ASV","icao":"HKAM","name":"Amboseli Airport","city":"Ol Tukai","country":"KE","lat":-2.644786,"lng":37.252922,"tz":"Africa/Nairobi"},{"iata":"ASW","icao":"HESN","name":"Aswan International Airport","city":"Aswan","country":"EG","lat":23.961075,"lng":32.820382,"tz":"Africa/Cairo"},{"iata":"ATC","icao":"MYCA","name":"Arthur's Town Airport","city":"Arthur's Town","country":"BS","lat":24.6294,"lng":-75.673797,"tz":"America/Nassau"},{"iata":"ATH","icao":"LGAV","name":"Athens Eleftherios Venizelos International Airport","city":"Spata-Artemida","country":"GR","lat":37.936401,"lng":23.9445,"tz":"Europe/Athens"},{"iata":"ATK","icao":"PATQ","name":"Atqasuk Edward Burnell Sr Memorial Airport","city":"Atqasuk","country":"US","lat":70.46704,"lng":-157.436013,"tz":"America/Anchorage"},{"iata":"ATL","icao":"KATL","name":"Hartsfield Jackson Atlanta International Airport","city":"Atlanta","country":"US","lat":33.6367,"lng":-84.428101,"tz":"America/New_York"},{"iata":"ATM","icao":"SBHT","name":"Altamira Interstate Airport","city":"Altamira","country":"BR","lat":-3.253144,"lng":-52.253938,"tz":"America/Belem"},{"iata":"ATQ","icao":"VIAR","name":"Sri Guru Ram Das Ji International Airport","city":"Amritsar","country":"IN","lat":31.7096,"lng":74.797302,"tz":"Asia/Kolkata"},{"iata":"ATW","icao":"KATW","name":"Appleton International Airport","city":"Appleton","country":"US","lat":44.258515,"lng":-88.519,"tz":"America/Chicago"},{"iata":"ATY","icao":"KATY","name":"Watertown Regional Airport","city":"Watertown","country":"US","lat":44.914001,"lng":-97.154701,"tz":"America/Chicago"},{"iata":"ATZ","icao":"HEAT","name":"Asyut International Airport","city":"Asyut","country":"EG","lat":27.045962,"lng":31.01276,"tz":"Africa/Cairo"},{"iata":"AUA","icao":"TNCA","name":"Queen Beatrix International Airport","city":"Oranjestad","country":"AW","lat":12.501056,"lng":-70.014281,"tz":"America/Aruba"},{"iata":"AUC","icao":"SKUC","name":"Santiago Perez Airport","city":"Arauca","country":"CO","lat":7.06888,"lng":-70.7369,"tz":"America/Bogota"},{"iata":"AUG","icao":"KAUG","name":"Augusta State Airport","city":"Augusta","country":"US","lat":44.320599,"lng":-69.797302,"tz":"America/New_York"},{"iata":"AUH","icao":"OMAA","name":"Zayed International Airport","city":"Abu Dhabi","country":"AE","lat":24.440966,"lng":54.649237,"tz":"Asia/Dubai"},{"iata":"AUQ","icao":"NTMN","name":"Hiva Oa-Atuona Airport","city":"Hiva Oa Island","country":"PF","lat":-9.76879,"lng":-139.011002,"tz":"Pacific/Marquesas"},{"iata":"AUR","icao":"LFLW","name":"Aurillac airport","city":"Aurillac","country":"FR","lat":44.891399,"lng":2.42194,"tz":"Europe/Paris"},{"iata":"AUS","icao":"KAUS","name":"Austin Bergstrom International Airport","city":"Austin","country":"US","lat":30.197535,"lng":-97.662015,"tz":"America/Chicago"},{"iata":"AUX","icao":"SWGN","name":"Araguaína Airport","city":"Araguaína","country":"BR","lat":-7.22787,"lng":-48.240501,"tz":"America/Araguaina"},{"iata":"AVA","icao":"ZUAS","name":"Anshun Huangguoshu Airport","city":"Anshun (Xixiu)","country":"CN","lat":26.260556,"lng":105.873333,"tz":"Asia/Shanghai"},{"iata":"AVK","icao":"ZMAH","name":"Arvaikheer Airport","city":"Arvaikheer","country":"MN","lat":46.250301,"lng":102.802002,"tz":"Asia/Ulaanbaatar"},{"iata":"AVL","icao":"KAVL","name":"Asheville Regional Airport","city":"Asheville","country":"US","lat":35.435488,"lng":-82.541853,"tz":"America/New_York"},{"iata":"AVN","icao":"LFMV","name":"Avignon Caumont airport","city":"Avignon","country":"FR","lat":43.907299,"lng":4.90183,"tz":"Europe/Paris"},{"iata":"AVP","icao":"KAVP","name":"Wilkes-Barre/Scranton International Airport","city":"Wilkes-Barre/Scranton","country":"US","lat":41.337064,"lng":-75.724232,"tz":"America/New_York"},{"iata":"AVV","icao":"YMAV","name":"Melbourne Avalon International Airport","city":"Geelong/Melbourne","country":"AU","lat":-38.040269,"lng":144.467196,"tz":"Australia/Melbourne"},{"iata":"AWA","icao":"HALA","name":"Hawassa International Airport","city":"Hawassa","country":"ET","lat":7.100611,"lng":38.396455,"tz":"Africa/Addis_Ababa"},{"iata":"AWK","icao":"PWAK","name":"Wake Island Airfield","city":"Wake Island","country":"UM","lat":19.282437,"lng":166.636637,"tz":"Pacific/Wake"},{"iata":"AWZ","icao":"OIAW","name":"Qasem Soleimani International Airport","city":"Ahvaz","country":"IR","lat":31.3364,"lng":48.763789,"tz":"Asia/Tehran"},{"iata":"AXA","icao":"TQPF","name":"Clayton J. Lloyd International Airport","city":"The Valley","country":"AI","lat":18.204773,"lng":-63.05383,"tz":"America/Anguilla"},{"iata":"AXD","icao":"LGAL","name":"Alexandroupoli Democritus Airport","city":"Alexandroupolis","country":"GR","lat":40.8559,"lng":25.956301,"tz":"Europe/Athens"},{"iata":"AXF","icao":"ZBAL","name":"Alxa Left Banner Bayanhot Airport","city":"Bayanhot","country":"CN","lat":38.748317,"lng":105.58416,"tz":"Asia/Shanghai"},{"iata":"AXJ","icao":"RJDA","name":"Amakusa Airport","city":"Amakusa","country":"JP","lat":32.482498,"lng":130.158997,"tz":"Asia/Tokyo"},{"iata":"AXM","icao":"SKAR","name":"El Eden Airport","city":"Armenia","country":"CO","lat":4.45278,"lng":-75.7664,"tz":"America/Bogota"},{"iata":"AXP","icao":"MYAP","name":"Spring Point Airport","city":"Spring Point","country":"BS","lat":22.441799,"lng":-73.970901,"tz":"America/Nassau"},{"iata":"AXR","icao":"NTGU","name":"Arutua Airport","city":"","country":"PF","lat":-15.2483,"lng":-146.617004,"tz":"Pacific/Tahiti"},{"iata":"AXT","icao":"RJSK","name":"Akita Airport","city":"Akita","country":"JP","lat":39.615601,"lng":140.218994,"tz":"Asia/Tokyo"},{"iata":"AXU","icao":"HAAX","name":"Axum Airport","city":"Axum","country":"ET","lat":14.1468,"lng":38.7728,"tz":"Africa/Addis_Ababa"},{"iata":"AYJ","icao":"VEAY","name":"Maharshi Valmiki International Airport","city":"Faizabad","country":"IN","lat":26.747736,"lng":82.163664,"tz":"Asia/Kolkata"},{"iata":"AYP","icao":"SPHO","name":"Air Force Colonel Alfredo Mendivil Duarte Airport","city":"Ayacucho","country":"PE","lat":-13.1548,"lng":-74.204399,"tz":"America/Lima"},{"iata":"AYQ","icao":"YAYE","name":"Ayers Rock Connellan Airport","city":"Yulara","country":"AU","lat":-25.185913,"lng":130.97703,"tz":"Australia/Darwin"},{"iata":"AYT","icao":"LTAI","name":"Antalya International Airport","city":"Antalya","country":"TR","lat":36.898701,"lng":30.800501,"tz":"Europe/Istanbul"},{"iata":"AZA","icao":"KIWA","name":"Mesa Gateway Airport","city":"Mesa","country":"US","lat":33.3078,"lng":-111.654999,"tz":"America/Phoenix"},{"iata":"AZD","icao":"OIYY","name":"Shahid Sadooghi Airport","city":"Yazd","country":"IR","lat":31.9049,"lng":54.276501,"tz":"Asia/Tehran"},{"iata":"AZN","icao":"UZFA","name":"Andijan International Airport","city":"Andijan","country":"UZ","lat":40.727699,"lng":72.293999,"tz":"Asia/Tashkent"},{"iata":"AZO","icao":"KAZO","name":"Kalamazoo/Battle Creek International Airport","city":"Kalamazoo","country":"US","lat":42.232105,"lng":-85.549637,"tz":"America/Detroit"},{"iata":"AZR","icao":"DAUA","name":"Touat-Cheikh Sidi Mohamed Belkebir Airport","city":"Adrar","country":"DZ","lat":27.837601,"lng":-0.186414,"tz":"Africa/Algiers"},{"iata":"AZS","icao":"MDCY","name":"Samaná El Catey International Airport","city":"Samana","country":"DO","lat":19.269259,"lng":-69.737405,"tz":"America/Santo_Domingo"},{"iata":"BAG","icao":"RPUB","name":"Loakan Airport","city":"Baguio","country":"PH","lat":16.375034,"lng":120.619949,"tz":"Asia/Manila"},{"iata":"BAH","icao":"OBBI","name":"Bahrain International Airport","city":"Manama","country":"BH","lat":26.267295,"lng":50.63764,"tz":"Asia/Tehran"},{"iata":"BAL","icao":"LTCJ","name":"Batman Airport","city":"Batman","country":"TR","lat":37.929001,"lng":41.1166,"tz":"Europe/Istanbul"},{"iata":"BAQ","icao":"SKBQ","name":"Ernesto Cortissoz International Airport","city":"Barranquilla","country":"CO","lat":10.8896,"lng":-74.7808,"tz":"America/Bogota"},{"iata":"BAR","icao":"ZJQH","name":"Qionghai Bo'ao Airport","city":"Qionghai (Basuo)","country":"CN","lat":19.140951,"lng":110.452766,"tz":"Asia/Shanghai"},{"iata":"BAV","icao":"ZBOW","name":"Baotou Donghe International Airport","city":"Baotou","country":"CN","lat":40.560001,"lng":109.997002,"tz":"Asia/Shanghai"},{"iata":"BAX","icao":"UNBB","name":"Barnaul Gherman Titov International Airport","city":"Barnaul","country":"RU","lat":53.361285,"lng":83.539701,"tz":"Asia/Barnaul"},{"iata":"BAY","icao":"LRBM","name":"Maramureș International Airport","city":"Tăuții-Măgherăuș","country":"RO","lat":47.658444,"lng":23.464445,"tz":"Europe/Bucharest"},{"iata":"BBA","icao":"SCBA","name":"Balmaceda Airport","city":"Balmaceda","country":"CL","lat":-45.915968,"lng":-71.689499,"tz":"America/Argentina/Catamarca"},{"iata":"BBI","icao":"VEBS","name":"Biju Patnaik International Airport","city":"Bhubaneswar","country":"IN","lat":20.251021,"lng":85.814747,"tz":"Asia/Kolkata"},{"iata":"BBK","icao":"FBKE","name":"Kasane International Airport","city":"Kasane","country":"BW","lat":-17.831653,"lng":25.166195,"tz":"Africa/Gaborone"},{"iata":"BBM","icao":"VDBG","name":"Battambang Airport","city":"Battambang","country":"KH","lat":13.0956,"lng":103.223999,"tz":"Asia/Phnom_Penh"},{"iata":"BBN","icao":"WBGZ","name":"Bario Airport","city":"Bario","country":"MY","lat":3.734648,"lng":115.478548,"tz":"Asia/Makassar"},{"iata":"BBO","icao":"HCMI","name":"Berbera Airport","city":"Berbera","country":"SO","lat":10.385035,"lng":44.936723,"tz":"Africa/Mogadishu"},{"iata":"BBQ","icao":"TAPB","name":"Burton-Nibbs International Airport","city":"Codrington","country":"AG","lat":17.621194,"lng":-61.798347,"tz":"America/Antigua"},{"iata":"BBU","icao":"LRBS","name":"Bucharest Băneasa Aurel Vlaicu International Airport","city":"Bucharest","country":"RO","lat":44.503133,"lng":26.102944,"tz":"Europe/Bucharest"},{"iata":"BCA","icao":"MUBA","name":"Gustavo Rizo Airport","city":"Baracoa","country":"CU","lat":20.365299,"lng":-74.506203,"tz":"America/Havana"},{"iata":"BCD","icao":"RPVB","name":"Bacolod-Silay International Airport","city":"Bacolod City","country":"PH","lat":10.776237,"lng":123.018879,"tz":"Asia/Manila"},{"iata":"BCH","icao":"WPEC","name":"Baucau Airport","city":"Baucau","country":"TL","lat":-8.486479,"lng":126.399981,"tz":"Asia/Dili"},{"iata":"BCI","icao":"YBAR","name":"Barcaldine Airport","city":"Barcaldine","country":"AU","lat":-23.566268,"lng":145.302086,"tz":"Australia/Brisbane"},{"iata":"BCM","icao":"LRBC","name":"Bacău George Enescu International  Airport","city":"Bacău","country":"RO","lat":46.5219,"lng":26.910299,"tz":"Europe/Bucharest"},{"iata":"BCN","icao":"LEBL","name":"Josep Tarradellas Barcelona-El Prat Airport","city":"Barcelona","country":"ES","lat":41.2971,"lng":2.07846,"tz":"Europe/Madrid"},{"iata":"BCO","icao":"HABC","name":"Jinka Airport","city":"Jinka","country":"ET","lat":5.749655,"lng":36.560165,"tz":"Africa/Addis_Ababa"},{"iata":"BCU","icao":"DNBC","name":"Sir Abubakar Tafawa Balewa Bauchi State International Airport","city":"Bauchi","country":"NG","lat":10.482833,"lng":9.744,"tz":"Africa/Lagos"},{"iata":"BDA","icao":"TXKF","name":"L.F. Wade International Airport","city":"Hamilton","country":"BM","lat":32.363802,"lng":-64.67824,"tz":"Atlantic/Bermuda"},{"iata":"BDB","icao":"YBUD","name":"Bundaberg Airport","city":"Bundaberg","country":"AU","lat":-24.905039,"lng":152.322612,"tz":"Australia/Brisbane"},{"iata":"BDH","icao":"OIBL","name":"Bandar Lengeh International Airport","city":"Bandar Lengeh","country":"IR","lat":26.532283,"lng":54.82484,"tz":"Asia/Tehran"},{"iata":"BDJ","icao":"WAOO","name":"Syamsudin Noor International Airport","city":"Banjarbaru","country":"ID","lat":-3.440112,"lng":114.761209,"tz":"Asia/Makassar"},{"iata":"BDL","icao":"KBDL","name":"Bradley International Airport","city":"Hartford","country":"US","lat":41.938555,"lng":-72.688016,"tz":"America/New_York"},{"iata":"BDO","icao":"WICC","name":"Husein Sastranegara International Airport","city":"Bandung","country":"ID","lat":-6.90063,"lng":107.575996,"tz":"Asia/Jakarta"},{"iata":"BDQ","icao":"VABO","name":"Vadodara International Airport","city":"Vadodara","country":"IN","lat":22.336201,"lng":73.226303,"tz":"Asia/Kolkata"},{"iata":"BDS","icao":"LIBR","name":"Brindisi Airport","city":"Brindisi","country":"IT","lat":40.6576,"lng":17.947001,"tz":"Europe/Rome"},{"iata":"BDT","icao":"FZFD","name":"Gbadolite Airport","city":"Gbadolite","country":"CD","lat":4.252745,"lng":20.975271,"tz":"Africa/Bangui"},{"iata":"BDU","icao":"ENDU","name":"Bardufoss Airport","city":"Målselv","country":"NO","lat":69.055801,"lng":18.5404,"tz":"Europe/Oslo"},{"iata":"BEB","icao":"EGPL","name":"Benbecula Airport","city":"Balivanich","country":"GB","lat":57.481098,"lng":-7.36278,"tz":"Europe/London"},{"iata":"BED","icao":"KBED","name":"Laurence G Hanscom Field","city":"Bedford","country":"US","lat":42.470001,"lng":-71.289001,"tz":"America/New_York"},{"iata":"BEF","icao":"MNBL","name":"Bluefields Airport","city":"Bluefields","country":"NI","lat":11.991,"lng":-83.774101,"tz":"America/Managua"},{"iata":"BEG","icao":"LYBE","name":"Belgrade Nikola Tesla Airport","city":"Belgrade","country":"RS","lat":44.818401,"lng":20.309099,"tz":"Europe/Belgrade"},{"iata":"BEJ","icao":"WAQT","name":"Kalimarau Airport","city":"Tanjung Redeb - Borneo Island","country":"ID","lat":2.14776,"lng":117.430705,"tz":"Asia/Makassar"},{"iata":"BEK","icao":"VIBY","name":"Bareilly Air Force Station","city":"Bareilly","country":"IN","lat":28.4221,"lng":79.450798,"tz":"Asia/Kolkata"},{"iata":"BEL","icao":"SBBE","name":"Val de Cans/Júlio Cezar Ribeiro International Airport","city":"Belém","country":"BR","lat":-1.379279,"lng":-48.476207,"tz":"America/Belem"},{"iata":"BEM","icao":"GMMD","name":"Beni Mellal Airport","city":"Oulad Yaich","country":"MA","lat":32.401895,"lng":-6.315905,"tz":"Africa/Casablanca"},{"iata":"BEN","icao":"HLLB","name":"Benina International Airport","city":"Benina","country":"LY","lat":32.096802,"lng":20.269501,"tz":"Africa/Tripoli"},{"iata":"BER","icao":"EDDB","name":"Berlin Brandenburg Airport","city":"Berlin","country":"DE","lat":52.361738,"lng":13.502341,"tz":"Europe/Berlin"},{"iata":"BES","icao":"LFRB","name":"Brest Bretagne airport","city":"Brest","country":"FR","lat":48.447899,"lng":-4.41854,"tz":"Europe/Paris"},{"iata":"BET","icao":"PABE","name":"Bethel Airport","city":"Bethel","country":"US","lat":60.7798,"lng":-161.837997,"tz":"America/Nome"},{"iata":"BEU","icao":"YBIE","name":"Bedourie Airport","city":"Bedourie","country":"AU","lat":-24.3461,"lng":139.460007,"tz":"Australia/Brisbane"},{"iata":"BEW","icao":"FQBR","name":"Beira International Airport","city":"Beira","country":"MZ","lat":-19.7964,"lng":34.9076,"tz":"Africa/Maputo"},{"iata":"BEY","icao":"OLBA","name":"Beirut Rafic Hariri International Airport","city":"Beirut","country":"LB","lat":33.819833,"lng":35.487443,"tz":"Asia/Beirut"},{"iata":"BFD","icao":"KBFD","name":"Bradford Regional Airport","city":"Bradford","country":"US","lat":41.803101,"lng":-78.640099,"tz":"America/New_York"},{"iata":"BFF","icao":"KBFF","name":"Western Neb. Rgnl/William B. Heilig Airport","city":"Scottsbluff","country":"US","lat":41.874001,"lng":-103.596001,"tz":"America/Denver"},{"iata":"BFI","icao":"KBFI","name":"King County International Airport - Boeing Field","city":"Seattle","country":"US","lat":47.527042,"lng":-122.29995,"tz":"America/Los_Angeles"},{"iata":"BFJ","icao":"ZUBJ","name":"Bijie Feixiong Airport","city":"Bijie","country":"CN","lat":27.267066,"lng":105.472097,"tz":"Asia/Shanghai"},{"iata":"BFL","icao":"KBFL","name":"Meadows Field","city":"Bakersfield","country":"US","lat":35.433601,"lng":-119.056999,"tz":"America/Los_Angeles"},{"iata":"BFN","icao":"FABL","name":"Bram Fischer International Airport","city":"Bloemfontein","country":"ZA","lat":-29.092699,"lng":26.302401,"tz":"Africa/Johannesburg"},{"iata":"BFS","icao":"EGAA","name":"Belfast International Airport","city":"Belfast","country":"GB","lat":54.657501,"lng":-6.21583,"tz":"Europe/London"},{"iata":"BFV","icao":"VTUO","name":"Buri Ram Airport","city":"Buriram","country":"TH","lat":15.2295,"lng":103.252998,"tz":"Asia/Bangkok"},{"iata":"BFY","icao":"ZSBA","name":"Bengbu Tenghu Airport","city":"Bengbu","country":"CN","lat":33.166292,"lng":117.058344,"tz":"Asia/Shanghai"},{"iata":"BGA","icao":"SKBG","name":"Palonegro Airport","city":"Bucaramanga","country":"CO","lat":7.1265,"lng":-73.1848,"tz":"America/Bogota"},{"iata":"BGC","icao":"LPBG","name":"Bragança Airport","city":"Bragança","country":"PT","lat":41.8578,"lng":-6.70713,"tz":"Europe/Lisbon"},{"iata":"BGF","icao":"FEFF","name":"Bangui M'Poko International Airport","city":"Bangui","country":"CF","lat":4.39848,"lng":18.518801,"tz":"Africa/Bangui"},{"iata":"BGI","icao":"TBPB","name":"Grantley Adams International Airport","city":"Bridgetown","country":"BB","lat":13.074667,"lng":-59.491034,"tz":"America/Barbados"},{"iata":"BGM","icao":"KBGM","name":"Greater Binghamton/Edwin A Link field","city":"Binghamton","country":"US","lat":42.208698,"lng":-75.979797,"tz":"America/New_York"},{"iata":"BGO","icao":"ENBR","name":"Bergen Airport, Flesland","city":"Bergen","country":"NO","lat":60.2934,"lng":5.21814,"tz":"Europe/Oslo"},{"iata":"BGR","icao":"KBGR","name":"Bangor International Airport","city":"Bangor","country":"US","lat":44.806364,"lng":-68.826668,"tz":"America/New_York"},{"iata":"BGW","icao":"ORBI","name":"Baghdad International Airport / New Al Muthana Air Base","city":"Baghdad","country":"IQ","lat":33.262501,"lng":44.2346,"tz":"Asia/Baghdad"},{"iata":"BGY","icao":"LIME","name":"Il Caravaggio International Airport","city":"Orio al Serio (BG)","country":"IT","lat":45.669362,"lng":9.708851,"tz":"Europe/Rome"},{"iata":"BHB","icao":"KBHB","name":"Hancock County-Bar Harbor Airport","city":"Bar Harbor","country":"US","lat":44.450001,"lng":-68.361504,"tz":"America/New_York"},{"iata":"BHD","icao":"EGAC","name":"George Best Belfast City Airport","city":"Belfast","country":"GB","lat":54.618099,"lng":-5.8725,"tz":"Europe/London"},{"iata":"BHE","icao":"NZWB","name":"Woodbourne Airport","city":"Blenheim","country":"NZ","lat":-41.518299,"lng":173.869995,"tz":"Pacific/Auckland"},{"iata":"BHH","icao":"OEBH","name":"Bisha Airport","city":"Bisha","country":"SA","lat":19.9844,"lng":42.620899,"tz":"Asia/Riyadh"},{"iata":"BHI","icao":"SAZB","name":"Comandante Espora Airport","city":"Bahía Blanca","country":"AR","lat":-38.725,"lng":-62.1693,"tz":"America/Argentina/Buenos_Aires"},{"iata":"BHJ","icao":"VABJ","name":"Bhuj Airport","city":"Bhuj","country":"IN","lat":23.2878,"lng":69.670197,"tz":"Asia/Kolkata"},{"iata":"BHK","icao":"UZSB","name":"Bukhara International Airport","city":"Bukhara","country":"UZ","lat":39.775319,"lng":64.482279,"tz":"Asia/Samarkand"},{"iata":"BHM","icao":"KBHM","name":"Birmingham-Shuttlesworth International Airport","city":"Birmingham","country":"US","lat":33.562877,"lng":-86.750712,"tz":"America/Chicago"},{"iata":"BHO","icao":"VABP","name":"Raja Bhoj International Airport","city":"Bhopal","country":"IN","lat":23.2875,"lng":77.337402,"tz":"Asia/Kolkata"},{"iata":"BHQ","icao":"YBHI","name":"Broken Hill Airport","city":"Broken Hill","country":"AU","lat":-32.0014,"lng":141.472,"tz":"Australia/Broken_Hill"},{"iata":"BHS","icao":"YBTH","name":"Bathurst Airport","city":"Bathurst","country":"AU","lat":-33.406817,"lng":149.651161,"tz":"Australia/Sydney"},{"iata":"BHU","icao":"VABV","name":"Bhavnagar Airport","city":"Bhavnagar","country":"IN","lat":21.752199,"lng":72.185204,"tz":"Asia/Kolkata"},{"iata":"BHV","icao":"OPBW","name":"Bahawalpur Airport","city":"Bahawalpur","country":"PK","lat":29.348101,"lng":71.718002,"tz":"Asia/Karachi"},{"iata":"BHX","icao":"EGBB","name":"Birmingham Airport","city":"Birmingham, West Midlands","country":"GB","lat":52.453899,"lng":-1.74803,"tz":"Europe/London"},{"iata":"BHY","icao":"ZGBH","name":"Beihai Fucheng Airport","city":"Beihai","country":"CN","lat":21.538659,"lng":109.293683,"tz":"Asia/Shanghai"},{"iata":"BIA","icao":"LFKB","name":"Bastia-Poretta International airport","city":"Bastia","country":"FR","lat":42.5527,"lng":9.48373,"tz":"Europe/Paris"},{"iata":"BIH","icao":"KBIH","name":"Eastern Sierra Regional Airport","city":"Bishop","country":"US","lat":37.3731,"lng":-118.363998,"tz":"America/Los_Angeles"},{"iata":"BIK","icao":"WABB","name":"Frans Kaisiepo Airport","city":"Biak","country":"ID","lat":-1.19002,"lng":136.108002,"tz":"Asia/Jayapura"},{"iata":"BIL","icao":"KBIL","name":"Billings Logan International Airport","city":"Billings","country":"US","lat":45.808932,"lng":-108.541242,"tz":"America/Denver"},{"iata":"BIM","icao":"MYBS","name":"South Bimini Airport","city":"South Bimini","country":"BS","lat":25.6999,"lng":-79.264702,"tz":"America/Nassau"},{"iata":"BIO","icao":"LEBB","name":"Bilbao Airport","city":"Bilbao","country":"ES","lat":43.301102,"lng":-2.91061,"tz":"Europe/Madrid"},{"iata":"BIQ","icao":"LFBZ","name":"Biarritz Pays Basque airport","city":"Biarritz","country":"FR","lat":43.468372,"lng":-1.523223,"tz":"Europe/Paris"},{"iata":"BIR","icao":"VNVT","name":"Biratnagar Airport","city":"Biratnagar","country":"NP","lat":26.481501,"lng":87.264,"tz":"Asia/Kathmandu"},{"iata":"BIS","icao":"KBIS","name":"Bismarck Municipal Airport","city":"Bismarck","country":"US","lat":46.772734,"lng":-100.746874,"tz":"America/Chicago"},{"iata":"BJA","icao":"DAAE","name":"Soummam–Abane Ramdane Airport","city":"Béjaïa","country":"DZ","lat":36.712547,"lng":5.069909,"tz":"Africa/Algiers"},{"iata":"BJB","icao":"OIMN","name":"Bojnord Airport","city":"Bojnord","country":"IR","lat":37.493,"lng":57.308201,"tz":"Asia/Tehran"},{"iata":"BJC","icao":"KBJC","name":"Rocky Mountain Metropolitan Airport","city":"Denver","country":"US","lat":39.908798,"lng":-105.116997,"tz":"America/Denver"},{"iata":"BJF","icao":"ENBS","name":"Båtsfjord Airport","city":"Båtsfjord","country":"NO","lat":70.60025,"lng":29.692612,"tz":"Europe/Oslo"},{"iata":"BJL","icao":"GBYD","name":"Banjul International Airport","city":"Yundum","country":"GM","lat":13.338,"lng":-16.652201,"tz":"Africa/Banjul"},{"iata":"BJM","icao":"HBBA","name":"Bujumbura Melchior Ndadaye International Airport","city":"Bujumbura","country":"BI","lat":-3.32402,"lng":29.318501,"tz":"Africa/Bujumbura"},{"iata":"BJR","icao":"HABD","name":"Bahir Dar Airport","city":"Bahir Dar","country":"ET","lat":11.6081,"lng":37.321602,"tz":"Africa/Addis_Ababa"},{"iata":"BJV","icao":"LTFE","name":"Milas Bodrum International Airport","city":"Bodrum","country":"TR","lat":37.249314,"lng":27.66401,"tz":"Europe/Istanbul"},{"iata":"BJX","icao":"MMLO","name":"Guanajuato International Airport","city":"Silao","country":"MX","lat":20.992695,"lng":-101.480284,"tz":"America/Mexico_City"},{"iata":"BJZ","icao":"LEBZ","name":"Badajoz Airport","city":"Badajoz","country":"ES","lat":38.8913,"lng":-6.82133,"tz":"Europe/Madrid"},{"iata":"BKG","icao":"KBBG","name":"Branson Airport","city":"Branson","country":"US","lat":36.532082,"lng":-93.200544,"tz":"America/Chicago"},{"iata":"BKI","icao":"WBKK","name":"Kota Kinabalu International Airport","city":"Kota Kinabalu","country":"MY","lat":5.932743,"lng":116.049324,"tz":"Asia/Kuching"},{"iata":"BKK","icao":"VTBS","name":"Suvarnabhumi Airport","city":"Bangkok","country":"TH","lat":13.6811,"lng":100.747002,"tz":"Asia/Bangkok"},{"iata":"BKN","icao":"UTAN","name":"Balkanabat International Airport","city":"Balkanabat","country":"TM","lat":39.681052,"lng":54.206008,"tz":"Asia/Ashgabat"},{"iata":"BKO","icao":"GABS","name":"Modibo Keita International Airport","city":"Bamako","country":"ML","lat":12.5335,"lng":-7.94994,"tz":"Africa/Bamako"},{"iata":"BKQ","icao":"YBCK","name":"Blackall Airport","city":"Blackall","country":"AU","lat":-24.431678,"lng":145.429716,"tz":"Australia/Brisbane"},{"iata":"BKS","icao":"WIGG","name":"Fatmawati Soekarno Airport","city":"Bengkulu","country":"ID","lat":-3.8637,"lng":102.338997,"tz":"Asia/Jakarta"},{"iata":"BKW","icao":"KBKW","name":"Raleigh County Memorial Airport","city":"Beaver","country":"US","lat":37.7873,"lng":-81.124199,"tz":"America/New_York"},{"iata":"BLA","icao":"SVBC","name":"General José Antonio Anzoategui International Airport","city":"Barcelona","country":"VE","lat":10.111111,"lng":-64.692222,"tz":"America/Caracas"},{"iata":"BLD","icao":null,"name":"Boulder City Municipal Airport","city":"Boulder City","country":"US","lat":35.947161,"lng":-114.858799,"tz":"America/Los_Angeles"},{"iata":"BLE","icao":"ESSD","name":"Dala Airport","city":"Borlange","country":"SE","lat":60.422001,"lng":15.5152,"tz":"Europe/Stockholm"},{"iata":"BLI","icao":"KBLI","name":"Bellingham International Airport","city":"Bellingham","country":"US","lat":48.792801,"lng":-122.538002,"tz":"America/Los_Angeles"},{"iata":"BLJ","icao":"DABT","name":"Batna Mostefa Ben Boulaid Airport","city":"Batna","country":"DZ","lat":35.752102,"lng":6.30859,"tz":"Africa/Algiers"},{"iata":"BLL","icao":"EKBI","name":"Billund Airport","city":"Billund","country":"DK","lat":55.740335,"lng":9.157019,"tz":"Europe/Copenhagen"},{"iata":"BLQ","icao":"LIPE","name":"Bologna Guglielmo Marconi Airport","city":"Bologna","country":"IT","lat":44.5354,"lng":11.2887,"tz":"Europe/Rome"},{"iata":"BLR","icao":"VOBL","name":"Kempegowda International Airport Bengaluru","city":"Bengaluru","country":"IN","lat":13.1979,"lng":77.706299,"tz":"Asia/Kolkata"},{"iata":"BLV","icao":"KBLV","name":"Scott AFB/Midamerica Airport","city":"Belleville","country":"US","lat":38.5452,"lng":-89.835197,"tz":"America/Chicago"},{"iata":"BLZ","icao":"FWCL","name":"Chileka International Airport","city":"Blantyre","country":"MW","lat":-15.677189,"lng":34.972319,"tz":"Africa/Blantyre"},{"iata":"BMA","icao":"ESSB","name":"Stockholm-Bromma Airport","city":"Stockholm","country":"SE","lat":59.354401,"lng":17.9417,"tz":"Europe/Stockholm"},{"iata":"BME","icao":"YBRM","name":"Broome International Airport","city":"Broome","country":"AU","lat":-17.949194,"lng":122.2283,"tz":"Australia/Perth"},{"iata":"BMI","icao":"KBMI","name":"Central Illinois Regional Airport at Bloomington-Normal","city":"Bloomington/Normal","country":"US","lat":40.4771,"lng":-88.915901,"tz":"America/Chicago"},{"iata":"BMU","icao":"WADB","name":"Sultan Muhammad Salahuddin Airport","city":"Bima","country":"ID","lat":-8.537184,"lng":118.685002,"tz":"Asia/Makassar"},{"iata":"BMV","icao":"VVBM","name":"Buon Ma Thuot Airport","city":"Buon Ma Thuot","country":"VN","lat":12.6683,"lng":108.120003,"tz":"Asia/Ho_Chi_Minh"},{"iata":"BNA","icao":"KBNA","name":"Nashville International Airport","city":"Nashville","country":"US","lat":36.1245,"lng":-86.6782,"tz":"America/Chicago"},{"iata":"BND","icao":"OIKB","name":"Bandar Abbas International Airport","city":"Bandar Abbas","country":"IR","lat":27.2183,"lng":56.3778,"tz":"Asia/Tehran"},{"iata":"BNE","icao":"YBBN","name":"Brisbane International Airport","city":"Brisbane","country":"AU","lat":-27.384199,"lng":153.117004,"tz":"Australia/Brisbane"},{"iata":"BNI","icao":"DNBE","name":"Benin Airport","city":"Benin","country":"NG","lat":6.31698,"lng":5.5995,"tz":"Africa/Lagos"},{"iata":"BNK","icao":"YBNA","name":"Ballina Byron Gateway Airport","city":"Ballina","country":"AU","lat":-28.833236,"lng":153.561471,"tz":"Australia/Sydney"},{"iata":"BNN","icao":"ENBN","name":"Brønnøysund Airport, Brønnøy","city":"Brønnøy","country":"NO","lat":65.461098,"lng":12.2175,"tz":"Europe/Oslo"},{"iata":"BNS","icao":"SVBI","name":"Barinas Airport","city":"Barinas","country":"VE","lat":8.615,"lng":-70.214167,"tz":"America/Caracas"},{"iata":"BNX","icao":"LQBK","name":"Banja Luka International Airport","city":"Mahovljani","country":"BA","lat":44.941399,"lng":17.297501,"tz":"Europe/Sarajevo"},{"iata":"BOB","icao":"NTTB","name":"Bora Bora Airport","city":"Motu Mute","country":"PF","lat":-16.444401,"lng":-151.751007,"tz":"Pacific/Tahiti"},{"iata":"BOC","icao":"MPBO","name":"Bocas del Toro \"Isla Colón\" International Airport","city":"Isla Colón","country":"PA","lat":9.34085,"lng":-82.250801,"tz":"America/Panama"},{"iata":"BOD","icao":"LFBD","name":"Bordeaux–Mérignac Airport","city":"Bordeaux","country":"FR","lat":44.82865,"lng":-0.715356,"tz":"Europe/Paris"},{"iata":"BOG","icao":"SKBO","name":"El Dorado International Airport","city":"Bogota","country":"CO","lat":4.70159,"lng":-74.1469,"tz":"America/Bogota"},{"iata":"BOH","icao":"EGHH","name":"Bournemouth Airport","city":"Bournemouth","country":"GB","lat":50.780483,"lng":-1.839576,"tz":"Europe/London"},{"iata":"BOI","icao":"KBOI","name":"Boise Air Terminal/Gowen Field","city":"Boise","country":"US","lat":43.5644,"lng":-116.223,"tz":"America/Boise"},{"iata":"BOJ","icao":"LBBG","name":"Burgas Airport","city":"Burgas","country":"BG","lat":42.569917,"lng":27.515173,"tz":"Europe/Sofia"},{"iata":"BOM","icao":"VABB","name":"Chhatrapati Shivaji Maharaj International Airport","city":"Mumbai","country":"IN","lat":19.088699,"lng":72.867897,"tz":"Asia/Kolkata"},{"iata":"BON","icao":"TNCB","name":"Flamingo International Airport","city":"Kralendijk","country":"BQ","lat":12.131,"lng":-68.268501,"tz":"America/Caracas"},{"iata":"BOO","icao":"ENBO","name":"Bodø Airport","city":"Bodø","country":"NO","lat":67.269203,"lng":14.3653,"tz":"Europe/Oslo"},{"iata":"BOR","icao":"VLBK","name":"Bokeo International Airport","city":"Ton Phueng","country":"LA","lat":20.323986,"lng":100.165392,"tz":"Asia/Bangkok"},{"iata":"BOS","icao":"KBOS","name":"Boston Logan International Airport","city":"Boston","country":"US","lat":42.36197,"lng":-71.0079,"tz":"America/New_York"},{"iata":"BOY","icao":"DFOO","name":"Bobo Dioulasso Airport","city":"Bobo Dioulasso","country":"BF","lat":11.1601,"lng":-4.33097,"tz":"Africa/Ouagadougou"},{"iata":"BPE","icao":"ZBDH","name":"Qinhuangdao Beidaihe Airport","city":"Qinhuangdao (Changli)","country":"CN","lat":39.666384,"lng":119.061384,"tz":"Asia/Shanghai"},{"iata":"BPL","icao":"ZWBL","name":"Bole Alashankou Airport","city":"Bole","country":"CN","lat":44.895461,"lng":82.30007,"tz":"Asia/Urumqi"},{"iata":"BPN","icao":"WALL","name":"Sultan Aji Muhammad Sulaiman Sepinggan International Airport","city":"Balikpapan","country":"ID","lat":-1.268342,"lng":116.89452,"tz":"Asia/Makassar"},{"iata":"BPS","icao":"SBPS","name":"Porto Seguro International Airport","city":"Porto Seguro","country":"BR","lat":-16.438426,"lng":-39.080584,"tz":"America/Bahia"},{"iata":"BPT","icao":"KBPT","name":"Jack Brooks Regional Airport","city":"Beaumont/Port Arthur","country":"US","lat":29.9508,"lng":-94.020699,"tz":"America/Chicago"},{"iata":"BPX","icao":"ZUBD","name":"Qamdo Bangda Airport","city":"Bangda","country":"CN","lat":30.5536,"lng":97.108299,"tz":"Asia/Shanghai"},{"iata":"BPY","icao":"FMNQ","name":"Besalampy Airport","city":"Besalampy","country":"MG","lat":-16.74453,"lng":44.482484,"tz":"Indian/Antananarivo"},{"iata":"BQK","icao":"KBQK","name":"Brunswick Golden Isles Airport","city":"Brunswick","country":"US","lat":31.258801,"lng":-81.466499,"tz":"America/New_York"},{"iata":"BQL","icao":"YBOU","name":"Boulia Airport","city":"","country":"AU","lat":-22.9133,"lng":139.899994,"tz":"Australia/Brisbane"},{"iata":"BQN","icao":"TJBQ","name":"Rafael Hernández International Airport","city":"Aguadilla","country":"PR","lat":18.4949,"lng":-67.129402,"tz":"America/Puerto_Rico"},{"iata":"BQS","icao":"UHBB","name":"Ignatyevo Airport","city":"Blagoveschensk","country":"RU","lat":50.4254,"lng":127.412003,"tz":"Asia/Yakutsk"},{"iata":"BQT","icao":"UMBB","name":"Brest International Airport","city":"Brest","country":"BY","lat":52.108138,"lng":23.89676,"tz":"Europe/Minsk"},{"iata":"BQU","icao":"TVSB","name":"J F Mitchell Airport","city":"Bequia","country":"VC","lat":12.9884,"lng":-61.262001,"tz":"America/Grenada"},{"iata":"BRC","icao":"SAZS","name":"Teniente Luis Candelaria International Airport","city":"San Carlos de Bariloche","country":"AR","lat":-41.151199,"lng":-71.157501,"tz":"America/Argentina/Salta"},{"iata":"BRD","icao":"KBRD","name":"Brainerd Lakes Regional Airport","city":"Brainerd","country":"US","lat":46.402861,"lng":-94.129727,"tz":"America/Chicago"},{"iata":"BRE","icao":"EDDW","name":"Bremen Airport","city":"Bremen","country":"DE","lat":53.046786,"lng":8.78932,"tz":"Europe/Berlin"},{"iata":"BRI","icao":"LIBD","name":"Bari Karol Wojtyła International Airport","city":"Bari","country":"IT","lat":41.138901,"lng":16.760599,"tz":"Europe/Rome"},{"iata":"BRK","icao":"YBKE","name":"Bourke Airport","city":"","country":"AU","lat":-30.0392,"lng":145.951996,"tz":"Australia/Sydney"},{"iata":"BRL","icao":"KBRL","name":"Southeast Iowa Regional Airport","city":"Burlington","country":"US","lat":40.783199,"lng":-91.125504,"tz":"America/Chicago"},{"iata":"BRM","icao":"SVBM","name":"Jacinto Lara International Airport","city":"Barquisimeto","country":"VE","lat":10.042747,"lng":-69.35862,"tz":"America/Caracas"},{"iata":"BRN","icao":"LSZB","name":"Bern Airport","city":"Bern","country":"CH","lat":46.912736,"lng":7.498819,"tz":"Europe/Zurich"},{"iata":"BRO","icao":"KBRO","name":"Brownsville South Padre Island International Airport","city":"Brownsville","country":"US","lat":25.907238,"lng":-97.425235,"tz":"America/Chicago"},{"iata":"BRQ","icao":"LKTB","name":"Brno-Tuřany Airport","city":"Brno","country":"CZ","lat":49.151276,"lng":16.693972,"tz":"Europe/Prague"},{"iata":"BRR","icao":"EGPR","name":"Barra Airport","city":"Eoligarry","country":"GB","lat":57.0228,"lng":-7.44306,"tz":"Europe/London"},{"iata":"BRS","icao":"EGGD","name":"Bristol Airport","city":"Bristol","country":"GB","lat":51.382326,"lng":-2.716453,"tz":"Europe/London"},{"iata":"BRU","icao":"EBBR","name":"Brussels Airport","city":"Zaventem","country":"BE","lat":50.901402,"lng":4.48444,"tz":"Europe/Brussels"},{"iata":"BRW","icao":"PABR","name":"Wiley Post Will Rogers Memorial Airport","city":"Utqiaġvik","country":"US","lat":71.285402,"lng":-156.766008,"tz":"America/Anchorage"},{"iata":"BRX","icao":"MDBH","name":"Maria Montez International Airport","city":"Barahona","country":"DO","lat":18.251499,"lng":-71.120399,"tz":"America/Santo_Domingo"},{"iata":"BSA","icao":"HCMF","name":"Bender Qassim International Airport","city":"Bosaso","country":"SO","lat":11.275235,"lng":49.139231,"tz":"Africa/Mogadishu"},{"iata":"BSB","icao":"SBBR","name":"Presidente Juscelino Kubitschek International Airport","city":"Brasília","country":"BR","lat":-15.869167,"lng":-47.920834,"tz":"America/Sao_Paulo"},{"iata":"BSC","icao":"SKBS","name":"José Celestino Mutis Airport","city":"Bahía Solano","country":"CO","lat":6.20292,"lng":-77.3947,"tz":"America/Bogota"},{"iata":"BSD","icao":"ZPBS","name":"Baoshan Yunrui Airport","city":"Baoshan (Longyang)","country":"CN","lat":25.053301,"lng":99.168297,"tz":"Asia/Shanghai"},{"iata":"BSG","icao":"FGBT","name":"Bata International Airport","city":"Bata","country":"GQ","lat":1.90547,"lng":9.80568,"tz":"Africa/Douala"},{"iata":"BSK","icao":"DAUB","name":"Biskra - Mohamed Khider Airport","city":"Biskra","country":"DZ","lat":34.79318,"lng":5.738899,"tz":"Africa/Algiers"},{"iata":"BSL","icao":"LFSB","name":"EuroAirport Basel–Mulhouse–Freiburg","city":"Bâle / Mulhouse","country":"FR","lat":47.60068,"lng":7.521117,"tz":"Europe/Paris"},{"iata":"BSO","icao":"RPUO","name":"Basco Airport","city":"Basco","country":"PH","lat":20.4513,"lng":121.980003,"tz":"Asia/Manila"},{"iata":"BSR","icao":"ORMM","name":"Basra International Airport","city":"Basra","country":"IQ","lat":30.549101,"lng":47.662102,"tz":"Asia/Baghdad"},{"iata":"BSZ","icao":"UCFM","name":"Manas International Airport","city":"Bishkek","country":"KG","lat":43.061298,"lng":74.4776,"tz":"Asia/Bishkek"},{"iata":"BTC","icao":"VCCB","name":"Batticaloa International Airport","city":"Batticaloa","country":"LK","lat":7.705073,"lng":81.677163,"tz":"Asia/Colombo"},{"iata":"BTH","icao":"WIDD","name":"Hang Nadim International Airport","city":"Batam","country":"ID","lat":1.12103,"lng":104.119003,"tz":"Asia/Jakarta"},{"iata":"BTI","icao":"PABA","name":"Barter Island Long Range Radar Station Airport","city":"Barter Island","country":"US","lat":70.134003,"lng":-143.582001,"tz":"America/Anchorage"},{"iata":"BTJ","icao":"WITT","name":"Sultan Iskandar Muda International Airport","city":"Banda Aceh","country":"ID","lat":5.525087,"lng":95.41997,"tz":"Asia/Jakarta"},{"iata":"BTK","icao":"UIBB","name":"Bratsk Airport","city":"Bratsk","country":"RU","lat":56.3696,"lng":101.701822,"tz":"Asia/Irkutsk"},{"iata":"BTM","icao":"KBTM","name":"Bert Mooney Airport","city":"Butte","country":"US","lat":45.9548,"lng":-112.497002,"tz":"America/Denver"},{"iata":"BTR","icao":"KBTR","name":"Baton Rouge Metropolitan Airport","city":"Baton Rouge","country":"US","lat":30.533199,"lng":-91.149597,"tz":"America/Chicago"},{"iata":"BTS","icao":"LZIB","name":"M. R. Štefánik Airport","city":"Bratislava","country":"SK","lat":48.1702,"lng":17.2127,"tz":"Europe/Bratislava"},{"iata":"BTU","icao":"WBGB","name":"Bintulu Airport","city":"Bintulu","country":"MY","lat":3.12385,"lng":113.019997,"tz":"Asia/Kuching"},{"iata":"BTV","icao":"KBTV","name":"Patrick Leahy Burlington International Airport","city":"Burlington","country":"US","lat":44.471901,"lng":-73.153297,"tz":"America/New_York"},{"iata":"BUA","icao":"AYBK","name":"Buka Airport","city":"Buka Island","country":"PG","lat":-5.422299,"lng":154.672698,"tz":"Pacific/Bougainville"},{"iata":"BUD","icao":"LHBP","name":"Budapest Liszt Ferenc International Airport","city":"Budapest","country":"HU","lat":47.43018,"lng":19.262393,"tz":"Europe/Budapest"},{"iata":"BUF","icao":"KBUF","name":"Buffalo Niagara International Airport","city":"Buffalo","country":"US","lat":42.940498,"lng":-78.732201,"tz":"America/New_York"},{"iata":"BUN","icao":"SKBU","name":"Gerardo Tobar López Airport","city":"Buenaventura","country":"CO","lat":3.81963,"lng":-76.9898,"tz":"America/Bogota"},{"iata":"BUQ","icao":"FVJN","name":"Joshua Mqabuko Nkomo International Airport","city":"Bulawayo","country":"ZW","lat":-20.016284,"lng":28.622897,"tz":"Africa/Harare"},{"iata":"BUR","icao":"KBUR","name":"Hollywood Burbank/Bob Hope Airport","city":"Burbank","country":"US","lat":34.202834,"lng":-118.35805,"tz":"America/Los_Angeles"},{"iata":"BUS","icao":"UGSB","name":"Alexander Kartveli Batumi International Airport","city":"Batumi","country":"GE","lat":41.60939,"lng":41.600315,"tz":"Asia/Tbilisi"},{"iata":"BUX","icao":"FZKA","name":"Bunia Airport","city":"Bunia","country":"CD","lat":1.565743,"lng":30.220685,"tz":"Africa/Lubumbashi"},{"iata":"BUZ","icao":"OIBB","name":"Bushehr Airport","city":"Bushehr","country":"IR","lat":28.944799,"lng":50.834599,"tz":"Asia/Tehran"},{"iata":"BVA","icao":"LFOB","name":"Beauvais-Tillé airport","city":"Beauvais","country":"FR","lat":49.454399,"lng":2.11278,"tz":"Europe/Paris"},{"iata":"BVB","icao":"SBBV","name":"Atlas Brasil Cantanhede International Airport","city":"Boa Vista","country":"BR","lat":2.84615,"lng":-60.690648,"tz":"America/Boa_Vista"},{"iata":"BVC","icao":"GVBA","name":"Aristides Pereira International Airport","city":"Rabil","country":"CV","lat":16.136499,"lng":-22.888901,"tz":"Atlantic/Cape_Verde"},{"iata":"BVE","icao":"LFSL","name":"Brive Souillac airport","city":"Brive","country":"FR","lat":45.039722,"lng":1.485556,"tz":"Europe/Paris"},{"iata":"BVG","icao":"ENBV","name":"Berlevåg Airport","city":"Berlevåg","country":"NO","lat":70.871517,"lng":29.034097,"tz":"Europe/Oslo"},{"iata":"BVH","icao":"SBVH","name":"Brigadeiro Camarão Airport","city":"Vilhena","country":"BR","lat":-12.6944,"lng":-60.098301,"tz":"America/Porto_Velho"},{"iata":"BVI","icao":"YBDV","name":"Birdsville Airport","city":"","country":"AU","lat":-25.897499,"lng":139.348007,"tz":"Australia/Brisbane"},{"iata":"BVJ","icao":"USDB","name":"Bovanenkovo Airport","city":"Bovanenkovo","country":"RU","lat":70.315278,"lng":68.333611,"tz":"Asia/Yekaterinburg"},{"iata":"BWA","icao":"VNBW","name":"Gautam Buddha International Airport","city":"Siddharthanagar (Bhairahawa)","country":"NP","lat":27.504636,"lng":83.410381,"tz":"Asia/Kathmandu"},{"iata":"BWI","icao":"KBWI","name":"Baltimore/Washington International Thurgood Marshall Airport","city":"Baltimore","country":"US","lat":39.1754,"lng":-76.668297,"tz":"America/New_York"},{"iata":"BWK","icao":"LDSB","name":"Brač Airport","city":"Gornji Humac","country":"HR","lat":43.284454,"lng":16.678362,"tz":"Europe/Zagreb"},{"iata":"BWN","icao":"WBSB","name":"Brunei International Airport","city":"Bandar Seri Begawan","country":"BN","lat":4.9442,"lng":114.928001,"tz":"Asia/Brunei"},{"iata":"BWO","icao":"UWSB","name":"Balakovo Airport","city":"Balakovo","country":"RU","lat":51.858299,"lng":47.745602,"tz":"Europe/Saratov"},{"iata":"BWT","icao":"YWYY","name":"Wynyard Airport","city":"Burnie","country":"AU","lat":-40.997039,"lng":145.726,"tz":"Australia/Hobart"},{"iata":"BXH","icao":"UAAH","name":"Balkhash Airport","city":"Balkhash","country":"KZ","lat":46.894246,"lng":75.004533,"tz":"Asia/Almaty"},{"iata":"BXR","icao":"OIKM","name":"Bam Airport","city":"Bam","country":"IR","lat":29.0842,"lng":58.450001,"tz":"Asia/Tehran"},{"iata":"BXU","icao":"RPME","name":"Bancasi Airport","city":"Butuan","country":"PH","lat":8.9515,"lng":125.4788,"tz":"Asia/Manila"},{"iata":"BXY","icao":"UAOL","name":"Baikonur Krayniy International Airport","city":"Baikonur","country":"KZ","lat":45.621994,"lng":63.210773,"tz":"Asia/Qyzylorda"},{"iata":"BYK","icao":"DIBK","name":"Bouaké Airport","city":"Bouaké","country":"CI","lat":7.7388,"lng":-5.07367,"tz":"Africa/Abidjan"},{"iata":"BYM","icao":"MUBY","name":"Carlos Manuel de Cespedes Airport","city":"Bayamo","country":"CU","lat":20.3964,"lng":-76.621399,"tz":"America/Havana"},{"iata":"BYN","icao":"ZMBH","name":"Bayankhongor Airport","city":"Bayankhongor","country":"MN","lat":46.1633,"lng":100.704002,"tz":"Asia/Ulaanbaatar"},{"iata":"BZE","icao":"MZBZ","name":"Philip S. W. Goldson International Airport","city":"Belize City","country":"BZ","lat":17.539951,"lng":-88.303556,"tz":"America/Belize"},{"iata":"BZG","icao":"EPBY","name":"Ignacy Jan Paderewski Bydgoszcz Airport","city":"Bydgoszcz","country":"PL","lat":53.096802,"lng":17.977699,"tz":"Europe/Warsaw"},{"iata":"BZI","icao":"LTBF","name":"Balıkesir Airport","city":"Balıkesir","country":"TR","lat":39.619301,"lng":27.926001,"tz":"Europe/Istanbul"},{"iata":"BZK","icao":"UUBP","name":"Bryansk International Airport","city":"Bryansk","country":"RU","lat":53.214403,"lng":34.175965,"tz":"Europe/Moscow"},{"iata":"BZL","icao":"VGBR","name":"Barisal Airport","city":"Barisal","country":"BD","lat":22.801001,"lng":90.301201,"tz":"Asia/Dhaka"},{"iata":"BZN","icao":"KBZN","name":"Bozeman Yellowstone International Airport","city":"Bozeman","country":"US","lat":45.778853,"lng":-111.153711,"tz":"America/Denver"},{"iata":"BZO","icao":"LIPB","name":"Bolzano Airport","city":"Bolzano (BZ)","country":"IT","lat":46.459245,"lng":11.326125,"tz":"Europe/Rome"},{"iata":"BZR","icao":"LFMU","name":"Béziers Vias airport","city":"Béziers","country":"FR","lat":43.323502,"lng":3.3539,"tz":"Europe/Paris"},{"iata":"BZV","icao":"FCBB","name":"Maya-Maya International Airport","city":"Brazzaville","country":"CG","lat":-4.2517,"lng":15.253,"tz":"Africa/Brazzaville"},{"iata":"BZX","icao":"ZUBZ","name":"Bazhong Enyang Airport","city":"Bazhong","country":"CN","lat":31.73842,"lng":106.644872,"tz":"Asia/Shanghai"},{"iata":"CAB","icao":"FNCA","name":"Cabinda Airport","city":"Cabinda","country":"AO","lat":-5.59839,"lng":12.188145,"tz":"Africa/Luanda"},{"iata":"CAC","icao":"SBCA","name":"Coronel Adalberto Mendes da Silva Airport","city":"Cascavel","country":"BR","lat":-25.000323,"lng":-53.501208,"tz":"America/Sao_Paulo"},{"iata":"CAE","icao":"KCAE","name":"Columbia Metropolitan Airport","city":"Columbia","country":"US","lat":33.938172,"lng":-81.123022,"tz":"America/New_York"},{"iata":"CAG","icao":"LIEE","name":"Cagliari Elmas Airport","city":"Cagliari","country":"IT","lat":39.251499,"lng":9.05428,"tz":"Europe/Rome"},{"iata":"CAH","icao":"VVCM","name":"Cà Mau Airport","city":"Ca Mau City","country":"VN","lat":9.177667,"lng":105.177778,"tz":"Asia/Ho_Chi_Minh"},{"iata":"CAI","icao":"HECA","name":"Cairo International Airport","city":"Cairo","country":"EG","lat":30.111534,"lng":31.396694,"tz":"Africa/Cairo"},{"iata":"CAJ","icao":"SVCN","name":"Canaima Airport","city":"Canaima","country":"VE","lat":6.231989,"lng":-62.85485,"tz":"America/Caracas"},{"iata":"CAK","icao":"KCAK","name":"Akron Canton Regional Airport","city":"Akron","country":"US","lat":40.9161,"lng":-81.4422,"tz":"America/New_York"},{"iata":"CAL","icao":"EGEC","name":"Campbeltown Airport","city":"Campbeltown","country":"GB","lat":55.437199,"lng":-5.68639,"tz":"Europe/London"},{"iata":"CAN","icao":"ZGGG","name":"Guangzhou Baiyun International Airport","city":"Guangzhou (Huadu)","country":"CN","lat":23.392401,"lng":113.299004,"tz":"Asia/Shanghai"},{"iata":"CAP","icao":"MTCH","name":"Cap Haitien International Airport","city":"Cap Haitien","country":"HT","lat":19.725547,"lng":-72.20071,"tz":"America/Port-au-Prince"},{"iata":"CAT","icao":"LPCS","name":"Cascais Airport","city":"Cascais","country":"PT","lat":38.724998,"lng":-9.35523,"tz":"Europe/Lisbon"},{"iata":"CAW","icao":"SBCP","name":"Bartolomeu Lisandro Airport","city":"Campos dos Goytacazes","country":"BR","lat":-21.698299,"lng":-41.301701,"tz":"America/Sao_Paulo"},{"iata":"CAY","icao":"SOCA","name":"Cayenne – Félix Eboué Airport","city":"Matoury","country":"GF","lat":4.819964,"lng":-52.361326,"tz":"America/Cayenne"},{"iata":"CAZ","icao":"YCBA","name":"Cobar Airport","city":"","country":"AU","lat":-31.5383,"lng":145.794006,"tz":"Australia/Sydney"},{"iata":"CBB","icao":"SLCB","name":"Jorge Wilsterman International Airport","city":"Cochabamba","country":"BO","lat":-17.421105,"lng":-66.177102,"tz":"America/La_Paz"},{"iata":"CBH","icao":"DAOR","name":"Béchar Boudghene Ben Ali Lotfi Airport","city":"Béchar","country":"DZ","lat":31.6457,"lng":-2.26986,"tz":"Africa/Algiers"},{"iata":"CBO","icao":"RPMC","name":"Cotabato (Awang) Airport","city":"Datu Odin Sinsuat","country":"PH","lat":7.164753,"lng":124.209938,"tz":"Asia/Manila"},{"iata":"CBQ","icao":"DNCA","name":"Margaret Ekpo International Airport","city":"Calabar","country":"NG","lat":4.97602,"lng":8.3472,"tz":"Africa/Lagos"},{"iata":"CBR","icao":"YSCB","name":"Canberra Airport","city":"Canberra","country":"AU","lat":-35.3069,"lng":149.195007,"tz":"Australia/Sydney"},{"iata":"CBT","icao":"FNCT","name":"Catumbela Airport","city":"Catumbela","country":"AO","lat":-12.4792,"lng":13.4869,"tz":"Africa/Luanda"},{"iata":"CCC","icao":"MUCC","name":"Jardines Del Rey Airport","city":"Cayo Coco","country":"CU","lat":22.461,"lng":-78.3284,"tz":"America/Havana"},{"iata":"CCE","icao":"HECP","name":"Capital International Airport","city":"New Cairo","country":"EG","lat":30.06465,"lng":31.839974,"tz":"Africa/Cairo"},{"iata":"CCF","icao":"LFMK","name":"Carcassonne Salvaza Airport","city":"Carcassonne","country":"FR","lat":43.216,"lng":2.30632,"tz":"Europe/Paris"},{"iata":"CCJ","icao":"VOCL","name":"Calicut International Airport","city":"Calicut","country":"IN","lat":11.135996,"lng":75.955152,"tz":"Asia/Kolkata"},{"iata":"CCK","icao":"YPCC","name":"Cocos (Keeling) Islands Airport","city":"West Island","country":"CC","lat":-12.192218,"lng":96.834103,"tz":"Indian/Cocos"},{"iata":"CCM","icao":null,"name":"Forquilhinha - Criciúma  Airport","city":"Criciúma","country":"BR","lat":-28.725743,"lng":-49.424475,"tz":"America/Sao_Paulo"},{"iata":"CCP","icao":"SCIE","name":"Carriel Sur International Airport","city":"Concepcion","country":"CL","lat":-36.77235,"lng":-73.062828,"tz":"America/Santiago"},{"iata":"CCR","icao":"KCCR","name":"Buchanan Field","city":"Concord","country":"US","lat":37.9897,"lng":-122.056999,"tz":"America/Los_Angeles"},{"iata":"CCS","icao":"SVMI","name":"Maiquetía Simón Bolívar International Airport","city":"Maiquetía","country":"VE","lat":10.602214,"lng":-66.991174,"tz":"America/Caracas"},{"iata":"CCU","icao":"VECC","name":"Netaji Subhash Chandra Bose International Airport","city":"Kolkata","country":"IN","lat":22.654012,"lng":88.44765,"tz":"Asia/Kolkata"},{"iata":"CCZ","icao":"MYBC","name":"Chub Cay Airport","city":"Chub Cay","country":"BS","lat":25.417101,"lng":-77.880898,"tz":"America/Nassau"},{"iata":"CDB","icao":"PACD","name":"Cold Bay Airport","city":"Cold Bay","country":"US","lat":55.207871,"lng":-162.725029,"tz":"America/Nome"},{"iata":"CDC","icao":"KCDC","name":"Cedar City Regional Airport","city":"Cedar City","country":"US","lat":37.701,"lng":-113.098999,"tz":"America/Denver"},{"iata":"CDE","icao":"ZBCD","name":"Chengde Puning Airport","city":"Chengde","country":"CN","lat":41.1225,"lng":118.073889,"tz":"Asia/Shanghai"},{"iata":"CDG","icao":"LFPG","name":"Charles de Gaulle International Airport","city":"Paris (Roissy-en-France, Val-d'Oise)","country":"FR","lat":49.00896,"lng":2.554117,"tz":"Europe/Paris"},{"iata":"CDP","icao":"VOCP","name":"Kadapa Airport","city":"Kadapa","country":"IN","lat":14.513154,"lng":78.769183,"tz":"Asia/Kolkata"},{"iata":"CDR","icao":"KCDR","name":"Chadron Municipal Airport","city":"Chadron","country":"US","lat":42.837601,"lng":-103.095001,"tz":"America/Denver"},{"iata":"CDT","icao":"LECH","name":"Castellón-Costa Azahar Airport","city":"Castellón de la Plana","country":"ES","lat":40.213889,"lng":0.073333,"tz":"Europe/Madrid"},{"iata":"CDV","icao":"PACV","name":"Merle K (Mudhole) Smith Airport","city":"Cordova","country":"US","lat":60.491798,"lng":-145.477997,"tz":"America/Anchorage"},{"iata":"CEB","icao":"RPVM","name":"Mactan Cebu International Airport","city":"Cebu City/Lapu-Lapu City","country":"PH","lat":10.309261,"lng":123.97974,"tz":"Asia/Manila"},{"iata":"CEC","icao":"KCEC","name":"Jack Mc Namara Field Airport","city":"Crescent City","country":"US","lat":41.778929,"lng":-124.236403,"tz":"America/Los_Angeles"},{"iata":"CED","icao":"YCDU","name":"Ceduna Airport","city":"","country":"AU","lat":-32.1306,"lng":133.710007,"tz":"Australia/Adelaide"},{"iata":"CEE","icao":"ULWC","name":"Cherepovets Airport","city":"Cherepovets","country":"RU","lat":59.273602,"lng":38.0158,"tz":"Europe/Moscow"},{"iata":"CEI","icao":"VTCT","name":"Mae Fah Luang - Chiang Rai International Airport","city":"Chiang Rai","country":"TH","lat":19.952299,"lng":99.882896,"tz":"Asia/Bangkok"},{"iata":"CEK","icao":"USCC","name":"Kurchatov Chelyabinsk International Airport","city":"Chelyabinsk","country":"RU","lat":55.303141,"lng":61.504927,"tz":"Asia/Yekaterinburg"},{"iata":"CEN","icao":"MMCN","name":"Ciudad Obregón International Airport","city":"Ciudad Obregón","country":"MX","lat":27.392599,"lng":-109.833,"tz":"America/Hermosillo"},{"iata":"CEZ","icao":"KCEZ","name":"Cortez Municipal Airport","city":"Cortez","country":"US","lat":37.303001,"lng":-108.627998,"tz":"America/Denver"},{"iata":"CFE","icao":"LFLC","name":"Clermont-Ferrand Auvergne airport","city":"Clermont-Ferrand","country":"FR","lat":45.786701,"lng":3.16917,"tz":"Europe/Paris"},{"iata":"CFG","icao":"MUCF","name":"Jaime Gonzalez Airport","city":"Cienfuegos","country":"CU","lat":22.15,"lng":-80.4142,"tz":"America/Havana"},{"iata":"CFK","icao":"DAOI","name":"Chlef Aboubakr Belkaid International Airport","city":"Chlef","country":"DZ","lat":36.216614,"lng":1.341114,"tz":"Africa/Algiers"},{"iata":"CFN","icao":"EIDL","name":"Donegal Airport","city":"Donegal","country":"IE","lat":55.044201,"lng":-8.341,"tz":"Europe/Dublin"},{"iata":"CFR","icao":"LFRK","name":"Caen Carpiquet airport","city":"Caen","country":"FR","lat":49.17678,"lng":-0.454883,"tz":"Europe/Paris"},{"iata":"CFS","icao":"YCFS","name":"Coffs Harbour Airport","city":"Coffs Harbour","country":"AU","lat":-30.320601,"lng":153.115997,"tz":"Australia/Sydney"},{"iata":"CFU","icao":"LGKR","name":"Corfu Ioannis Kapodistrias International Airport","city":"Kerkyra (Corfu)","country":"GR","lat":39.60145,"lng":19.912179,"tz":"Europe/Athens"},{"iata":"CGB","icao":"SBCY","name":"Várzea Grande–Marechal Rondon International Airport","city":"Cuiabá","country":"BR","lat":-15.6529,"lng":-56.116699,"tz":"America/Cuiaba"},{"iata":"CGD","icao":"ZGCD","name":"Changde Taohuayuan Airport","city":"Changde (Dingcheng)","country":"CN","lat":28.9189,"lng":111.639999,"tz":"Asia/Shanghai"},{"iata":"CGH","icao":"SBSP","name":"Congonhas–Deputado Freitas Nobre Airport","city":"São Paulo","country":"BR","lat":-23.627657,"lng":-46.654601,"tz":"America/Sao_Paulo"},{"iata":"CGI","icao":"KCGI","name":"Cape Girardeau Regional Airport","city":"Cape Girardeau","country":"US","lat":37.2253,"lng":-89.570801,"tz":"America/Chicago"},{"iata":"CGK","icao":"WIII","name":"Soekarno-Hatta International Airport","city":"Jakarta","country":"ID","lat":-6.12557,"lng":106.655998,"tz":"Asia/Jakarta"},{"iata":"CGM","icao":"RPMH","name":"Camiguin Airport","city":"Mambajao","country":"PH","lat":9.253894,"lng":124.709115,"tz":"Asia/Manila"},{"iata":"CGN","icao":"EDDK","name":"Cologne Bonn Airport","city":"Köln (Cologne)","country":"DE","lat":50.865898,"lng":7.14274,"tz":"Europe/Berlin"},{"iata":"CGO","icao":"ZHCC","name":"Zhengzhou Xinzheng International Airport","city":"Zhengzhou","country":"CN","lat":34.526497,"lng":113.849165,"tz":"Asia/Shanghai"},{"iata":"CGP","icao":"VGEG","name":"Shah Amanat International Airport","city":"Chattogram (Chittagong)","country":"BD","lat":22.249599,"lng":91.813301,"tz":"Asia/Dhaka"},{"iata":"CGQ","icao":"ZYCC","name":"Changchun Longjia International Airport","city":"Changchun","country":"CN","lat":43.996201,"lng":125.684998,"tz":"Asia/Shanghai"},{"iata":"CGR","icao":"SBCG","name":"Campo Grande Airport","city":"Campo Grande","country":"BR","lat":-20.469998,"lng":-54.673988,"tz":"America/Campo_Grande"},{"iata":"CGY","icao":"RPMY","name":"Laguindingan International Airport","city":"Laguindingan","country":"PH","lat":8.612203,"lng":124.456496,"tz":"Asia/Manila"},{"iata":"CHA","icao":"KCHA","name":"Chattanooga Metropolitan Airport (Lovell Field)","city":"Chattanooga","country":"US","lat":35.035301,"lng":-85.203796,"tz":"America/New_York"},{"iata":"CHC","icao":"NZCH","name":"Christchurch International Airport","city":"Christchurch","country":"NZ","lat":-43.489029,"lng":172.532065,"tz":"Pacific/Auckland"},{"iata":"CHG","icao":"ZYCY","name":"Chaoyang Airport","city":"Shuangta, Chaoyang","country":"CN","lat":41.538101,"lng":120.434998,"tz":"Asia/Shanghai"},{"iata":"CHH","icao":"SPPY","name":"Chachapoyas Airport","city":"Chachapoyas","country":"PE","lat":-6.201911,"lng":-77.856195,"tz":"America/Lima"},{"iata":"CHM","icao":"SPEO","name":"FAP Lieutenant Jaime Andres de Montreuil Morales Airport","city":"Chimbote","country":"PE","lat":-9.14961,"lng":-78.523804,"tz":"America/Lima"},{"iata":"CHO","icao":"KCHO","name":"Charlottesville Albemarle Airport","city":"Charlottesville","country":"US","lat":38.138599,"lng":-78.452904,"tz":"America/New_York"},{"iata":"CHQ","icao":"LGSA","name":"Chania International Airport","city":"Souda","country":"GR","lat":35.531207,"lng":24.150673,"tz":"Europe/Athens"},{"iata":"CHS","icao":"KCHS","name":"Charleston International Airport","city":"Charleston","country":"US","lat":32.896159,"lng":-80.038151,"tz":"America/New_York"},{"iata":"CHT","icao":"NZCI","name":"Inia William Tuuta Memorial Airport","city":"Te One","country":"NZ","lat":-43.81189,"lng":-176.46514,"tz":"Pacific/Chatham"},{"iata":"CHX","icao":"MPCH","name":"Changuinola Captain Manuel Niño International Airport","city":"Changuinola","country":"PA","lat":9.458962,"lng":-82.515062,"tz":"America/Costa_Rica"},{"iata":"CIA","icao":"LIRA","name":"Ciampino–G. B. Pastine International Airport","city":"Rome","country":"IT","lat":41.798769,"lng":12.595331,"tz":"Europe/Rome"},{"iata":"CID","icao":"KCID","name":"The Eastern Iowa Airport","city":"Cedar Rapids","country":"US","lat":41.884701,"lng":-91.7108,"tz":"America/Chicago"},{"iata":"CIF","icao":"ZBCF","name":"Chifeng Yulong Airport","city":"Chifeng","country":"CN","lat":42.159723,"lng":118.840971,"tz":"Asia/Shanghai"},{"iata":"CIJ","icao":"SLCO","name":"Capitán Aníbal Arab Airport","city":"Cobija","country":"BO","lat":-11.039109,"lng":-68.782774,"tz":"America/Rio_Branco"},{"iata":"CIT","icao":"UAII","name":"Shymkent International Airport","city":"Shymkent","country":"KZ","lat":42.365021,"lng":69.47564,"tz":"Asia/Almaty"},{"iata":"CIU","icao":"KCIU","name":"Chippewa County International Airport","city":"Kincheloe","country":"US","lat":46.242038,"lng":-84.462082,"tz":"America/Detroit"},{"iata":"CIW","icao":"TVSC","name":"Canouan Airport","city":"Canouan","country":"VC","lat":12.699,"lng":-61.3424,"tz":"America/Grenada"},{"iata":"CIX","icao":"SPHI","name":"Capitán FAP José A. Quiñones González International Airport","city":"Chiclayo","country":"PE","lat":-6.789223,"lng":-79.828254,"tz":"America/Lima"},{"iata":"CIY","icao":"LICB","name":"Comiso Airport","city":"Comiso","country":"IT","lat":36.99583,"lng":14.60889,"tz":"Europe/Rome"},{"iata":"CJA","icao":"SPJR","name":"Mayor General FAP Armando Revoredo Iglesias Airport","city":"Cajamarca","country":"PE","lat":-7.13918,"lng":-78.489403,"tz":"America/Lima"},{"iata":"CJB","icao":"VOCB","name":"Coimbatore International Airport","city":"Coimbatore","country":"IN","lat":11.03,"lng":77.043404,"tz":"Asia/Kolkata"},{"iata":"CJC","icao":"SCCF","name":"El Loa Airport","city":"Calama","country":"CL","lat":-22.498199,"lng":-68.903603,"tz":"America/Santiago"},{"iata":"CJJ","icao":"RKTU","name":"Cheongju International Airport/Cheongju Air Base (K-59/G-513)","city":"Cheongju","country":"KR","lat":36.71556,"lng":127.500289,"tz":"Asia/Seoul"},{"iata":"CJL","icao":"OPCH","name":"Chitral Airport","city":"Chitral","country":"PK","lat":35.886213,"lng":71.799922,"tz":"Asia/Karachi"},{"iata":"CJM","icao":"VTSE","name":"Chumphon Airport","city":"Chumphon","country":"TH","lat":10.7112,"lng":99.361702,"tz":"Asia/Bangkok"},{"iata":"CJS","icao":"MMCS","name":"Abraham González International Airport","city":"Ciudad Juárez","country":"MX","lat":31.636673,"lng":-106.428533,"tz":"America/Ojinaga"},{"iata":"CJU","icao":"RKPC","name":"Jeju International Airport","city":"Jeju City","country":"KR","lat":33.512058,"lng":126.492548,"tz":"Asia/Seoul"},{"iata":"CKB","icao":"KCKB","name":"North Central West Virginia Airport","city":"Bridgeport","country":"US","lat":39.2966,"lng":-80.228104,"tz":"America/New_York"},{"iata":"CKG","icao":"ZUCK","name":"Chongqing Jiangbei International Airport","city":"Chongqing","country":"CN","lat":29.712254,"lng":106.651895,"tz":"Asia/Shanghai"},{"iata":"CKH","icao":"UESO","name":"Chokurdakh Airport","city":"Chokurdah","country":"RU","lat":70.6231,"lng":147.901993,"tz":"Asia/Srednekolymsk"},{"iata":"CKS","icao":"SBCJ","name":"Carajás Airport","city":"Parauapebas","country":"BR","lat":-6.117841,"lng":-50.003372,"tz":"America/Belem"},{"iata":"CKY","icao":"GUCY","name":"Ahmed Sékou Touré International Airport","city":"Conakry","country":"GN","lat":9.57689,"lng":-13.612,"tz":"Africa/Conakry"},{"iata":"CKZ","icao":"LTBH","name":"Çanakkale Airport","city":"Çanakkale","country":"TR","lat":40.137699,"lng":26.4268,"tz":"Europe/Istanbul"},{"iata":"CLD","icao":"KCRQ","name":"McClellan-Palomar Airport","city":"Carlsbad","country":"US","lat":33.1283,"lng":-117.279999,"tz":"America/Los_Angeles"},{"iata":"CLE","icao":"KCLE","name":"Cleveland Hopkins International Airport","city":"Cleveland","country":"US","lat":41.411701,"lng":-81.8498,"tz":"America/New_York"},{"iata":"CLJ","icao":"LRCL","name":"Avram Iancu Cluj International Airport","city":"Cluj-Napoca","country":"RO","lat":46.786042,"lng":23.685733,"tz":"Europe/Bucharest"},{"iata":"CLL","icao":"KCLL","name":"Easterwood Field","city":"College Station","country":"US","lat":30.5886,"lng":-96.3638,"tz":"America/Chicago"},{"iata":"CLO","icao":"SKCL","name":"Alfonso Bonilla Aragon International Airport","city":"Cali","country":"CO","lat":3.542717,"lng":-76.381898,"tz":"America/Bogota"},{"iata":"CLQ","icao":"MMIA","name":"Licenciado Miguel de la Madrid International Airport","city":"Colima","country":"MX","lat":19.277,"lng":-103.577002,"tz":"America/Mexico_City"},{"iata":"CLT","icao":"KCLT","name":"Charlotte Douglas International Airport","city":"Charlotte","country":"US","lat":35.214001,"lng":-80.9431,"tz":"America/New_York"},{"iata":"CLY","icao":"LFKC","name":"Calvi Sainte Catherine Airport","city":"Calvi","country":"FR","lat":42.530422,"lng":8.792984,"tz":"Europe/Paris"},{"iata":"CMA","icao":"YCMU","name":"Cunnamulla Airport","city":"","country":"AU","lat":-28.030001,"lng":145.621994,"tz":"Australia/Brisbane"},{"iata":"CMB","icao":"VCBI","name":"Bandaranaike International Colombo Airport","city":"Colombo","country":"LK","lat":7.18076,"lng":79.884102,"tz":"Asia/Colombo"},{"iata":"CME","icao":"MMCE","name":"Ciudad del Carmen International Airport","city":"Ciudad del Carmen","country":"MX","lat":18.651516,"lng":-91.799355,"tz":"America/Merida"},{"iata":"CMF","icao":"LFLB","name":"Chambéry Aix les Bains airport","city":"Chambéry","country":"FR","lat":45.6381,"lng":5.88023,"tz":"Europe/Paris"},{"iata":"CMG","icao":"SBCR","name":"Corumbá International Airport","city":"Corumbá","country":"BR","lat":-19.01193,"lng":-57.672772,"tz":"America/Campo_Grande"},{"iata":"CMH","icao":"KCMH","name":"John Glenn Columbus International Airport","city":"Columbus","country":"US","lat":39.998001,"lng":-82.891899,"tz":"America/New_York"},{"iata":"CMI","icao":"KCMI","name":"University of Illinois Willard Airport","city":"Savoy","country":"US","lat":40.039819,"lng":-88.276249,"tz":"America/Chicago"},{"iata":"CMN","icao":"GMMN","name":"Mohammed V International Airport","city":"Casablanca","country":"MA","lat":33.3675,"lng":-7.58997,"tz":"Africa/Casablanca"},{"iata":"CMU","icao":"AYCH","name":"Chimbu Airport","city":"Kundiawa","country":"PG","lat":-6.02429,"lng":144.970993,"tz":"Pacific/Port_Moresby"},{"iata":"CMW","icao":"MUCM","name":"Ignacio Agramonte International Airport","city":"Camaguey","country":"CU","lat":21.419909,"lng":-77.848039,"tz":"America/Havana"},{"iata":"CMX","icao":"KCMX","name":"Houghton County Memorial Airport","city":"Hancock","country":"US","lat":47.1684,"lng":-88.489098,"tz":"America/Detroit"},{"iata":"CNB","icao":"YCNM","name":"Coonamble Airport","city":"","country":"AU","lat":-30.980946,"lng":148.377833,"tz":"Australia/Sydney"},{"iata":"CND","icao":"LRCK","name":"Mihail Kogălniceanu International Airport","city":"Constanța","country":"RO","lat":44.362202,"lng":28.4883,"tz":"Europe/Bucharest"},{"iata":"CNF","icao":"SBCF","name":"Tancredo Neves International Airport","city":"Belo Horizonte","country":"BR","lat":-19.63571,"lng":-43.966928,"tz":"America/Sao_Paulo"},{"iata":"CNJ","icao":"YCCY","name":"Cloncurry Airport","city":"Cloncurry","country":"AU","lat":-20.6686,"lng":140.503998,"tz":"Australia/Brisbane"},{"iata":"CNM","icao":"KCNM","name":"Cavern City Air Terminal","city":"Carlsbad","country":"US","lat":32.337502,"lng":-104.263,"tz":"America/Denver"},{"iata":"CNN","icao":"VOKN","name":"Kannur International Airport","city":"Kannur","country":"IN","lat":11.916343,"lng":75.544979,"tz":"Asia/Kolkata"},{"iata":"CNP","icao":"BGCO","name":"Neerlerit Inaat Airport","city":"Neerlerit Inaat","country":"GL","lat":70.743103,"lng":-22.650499,"tz":"America/Godthab"},{"iata":"CNQ","icao":"SARC","name":"Corrientes Airport","city":"Corrientes","country":"AR","lat":-27.4455,"lng":-58.7619,"tz":"America/Argentina/Cordoba"},{"iata":"CNS","icao":"YBCS","name":"Cairns International Airport","city":"Cairns","country":"AU","lat":-16.878921,"lng":145.74948,"tz":"Australia/Brisbane"},{"iata":"CNX","icao":"VTCC","name":"Chiang Mai International Airport","city":"Chiang Mai","country":"TH","lat":18.7668,"lng":98.962601,"tz":"Asia/Bangkok"},{"iata":"CNY","icao":"KCNY","name":"Canyonlands Regional Airport","city":"Moab","country":"US","lat":38.755001,"lng":-109.754997,"tz":"America/Denver"},{"iata":"COD","icao":"KCOD","name":"Yellowstone Regional Airport","city":"Cody","country":"US","lat":44.520199,"lng":-109.024002,"tz":"America/Denver"},{"iata":"COK","icao":"VOCI","name":"Cochin International Airport","city":"Kochi","country":"IN","lat":10.151047,"lng":76.400838,"tz":"Asia/Kolkata"},{"iata":"COO","icao":"DBBB","name":"Cotonou Cadjehoun International Airport","city":"Cotonou","country":"BJ","lat":6.35723,"lng":2.38435,"tz":"Africa/Porto-Novo"},{"iata":"COQ","icao":"ZMCD","name":"Choibalsan Airport","city":"","country":"MN","lat":48.135381,"lng":114.647231,"tz":"Asia/Choibalsan"},{"iata":"COR","icao":"SACO","name":"Ingeniero Aeronáutico Ambrosio L.V. Taravella International Airport","city":"Cordoba","country":"AR","lat":-31.312346,"lng":-64.208329,"tz":"America/Argentina/Cordoba"},{"iata":"COS","icao":"KCOS","name":"City of Colorado Springs Municipal Airport","city":"Colorado Springs","country":"US","lat":38.805801,"lng":-104.700996,"tz":"America/Denver"},{"iata":"COU","icao":"KCOU","name":"Columbia Regional Airport","city":"Columbia","country":"US","lat":38.8181,"lng":-92.219597,"tz":"America/Chicago"},{"iata":"COV","icao":"LTDB","name":"Çukurova International Airport","city":"Tarsus","country":"TR","lat":36.891478,"lng":35.071235,"tz":"Europe/Istanbul"},{"iata":"CPC","icao":"SAZY","name":"Aviador C. Campos Airport","city":"Chapelco/San Martin de los Andes","country":"AR","lat":-40.075401,"lng":-71.137299,"tz":"America/Argentina/Salta"},{"iata":"CPD","icao":"YCBP","name":"Coober Pedy Airport","city":"Coober Pedy","country":"AU","lat":-29.038312,"lng":134.722166,"tz":"Australia/Adelaide"},{"iata":"CPE","icao":"MMCP","name":"Ingeniero Alberto Acuña Ongay International Airport","city":"Campeche","country":"MX","lat":19.815969,"lng":-90.500125,"tz":"America/Merida"},{"iata":"CPH","icao":"EKCH","name":"Copenhagen Kastrup Airport","city":"Copenhagen","country":"DK","lat":55.617901,"lng":12.656,"tz":"Europe/Copenhagen"},{"iata":"CPO","icao":"SCAT","name":"Desierto de Atacama Airport","city":"Copiapo","country":"CL","lat":-27.2612,"lng":-70.779198,"tz":"America/Santiago"},{"iata":"CPR","icao":"KCPR","name":"Casper-Natrona County International Airport","city":"Casper","country":"US","lat":42.907381,"lng":-106.461609,"tz":"America/Denver"},{"iata":"CPT","icao":"FACT","name":"Cape Town International Airport","city":"Cape Town","country":"ZA","lat":-33.97403,"lng":18.604333,"tz":"Africa/Johannesburg"},{"iata":"CPV","icao":"SBKG","name":"Presidente João Suassuna Airport","city":"Campina Grande","country":"BR","lat":-7.269662,"lng":-35.896057,"tz":"America/Fortaleza"},{"iata":"CPX","icao":"TJCP","name":"Benjamin Rivera Noriega Airport","city":"Culebra","country":"PR","lat":18.312954,"lng":-65.303893,"tz":"America/Puerto_Rico"},{"iata":"CQW","icao":"ZUWL","name":"Chongqing Xiannüshan Airport","city":"Wulong","country":"CN","lat":29.465658,"lng":107.693664,"tz":"Asia/Shanghai"},{"iata":"CRA","icao":"LRCV","name":"Craiova International Airport","city":"Craiova","country":"RO","lat":44.3181,"lng":23.888599,"tz":"Europe/Bucharest"},{"iata":"CRD","icao":"SAVC","name":"General Enrique Mosconi International Airport","city":"Comodoro Rivadavia","country":"AR","lat":-45.786941,"lng":-67.463355,"tz":"America/Argentina/Catamarca"},{"iata":"CRI","icao":"MYCI","name":"Colonel Hill Airport","city":"Colonel Hill","country":"BS","lat":22.7456,"lng":-74.182404,"tz":"America/Nassau"},{"iata":"CRK","icao":"RPLC","name":"Clark International Airport / Clark Air Base","city":"Mabalacat","country":"PH","lat":15.186,"lng":120.559998,"tz":"Asia/Manila"},{"iata":"CRL","icao":"EBCI","name":"Brussels South Charleroi Airport","city":"Charleroi","country":"BE","lat":50.461963,"lng":4.459562,"tz":"Europe/Brussels"},{"iata":"CRM","icao":"RPVF","name":"Catarman National Airport","city":"Catarman","country":"PH","lat":12.50161,"lng":124.635258,"tz":"Asia/Manila"},{"iata":"CRP","icao":"KCRP","name":"Corpus Christi International Airport","city":"Corpus Christi","country":"US","lat":27.770399,"lng":-97.501198,"tz":"America/Chicago"},{"iata":"CRV","icao":"LIBC","name":"Crotone Sant'Anna Pythagoras Airport","city":"Isola di Capo Rizzuto (KR)","country":"IT","lat":38.9972,"lng":17.0802,"tz":"Europe/Rome"},{"iata":"CRW","icao":"KCRW","name":"Yeager Airport","city":"Charleston","country":"US","lat":38.3731,"lng":-81.593201,"tz":"America/New_York"},{"iata":"CRZ","icao":"UTAV","name":"Türkmenabat International Airport","city":"Türkmenabat","country":"TM","lat":38.930662,"lng":63.563982,"tz":"Asia/Ashgabat"},{"iata":"CSG","icao":"KCSG","name":"Columbus Airport","city":"Columbus","country":"US","lat":32.516415,"lng":-84.939602,"tz":"America/New_York"},{"iata":"CSK","icao":"GOGS","name":"Cap Skirring Airport","city":"Cap Skirring","country":"SN","lat":12.39533,"lng":-16.748,"tz":"Africa/Dakar"},{"iata":"CSW","icao":"MMSL","name":"Cabo San Lucas International Airport","city":"Cabo San Lucas","country":"MX","lat":22.949072,"lng":-109.939479,"tz":"America/Mazatlan"},{"iata":"CSX","icao":"ZGHA","name":"Changsha Huanghua International Airport","city":"Changsha (Changsha)","country":"CN","lat":28.189199,"lng":113.220001,"tz":"Asia/Shanghai"},{"iata":"CSY","icao":"UWKS","name":"Cheboksary Airport","city":"Cheboksary","country":"RU","lat":56.090302,"lng":47.347301,"tz":"Europe/Moscow"},{"iata":"CTA","icao":"LICC","name":"Catania-Fontanarossa Airport","city":"Catania","country":"IT","lat":37.466801,"lng":15.0664,"tz":"Europe/Rome"},{"iata":"CTC","icao":"SANC","name":"Coronel Felipe Varela International Airport","city":"Catamarca","country":"AR","lat":-28.593117,"lng":-65.7512,"tz":"America/Argentina/Catamarca"},{"iata":"CTD","icao":"MPCE","name":"Alonso Valderrama Airport","city":"Chitré","country":"PA","lat":7.98784,"lng":-80.409837,"tz":"America/Panama"},{"iata":"CTG","icao":"SKCG","name":"Rafael Nuñez International Airport","city":"Cartagena","country":"CO","lat":10.4424,"lng":-75.513,"tz":"America/Bogota"},{"iata":"CTL","icao":"YBCV","name":"Charleville Airport","city":"Charleville","country":"AU","lat":-26.4133,"lng":146.261993,"tz":"Australia/Brisbane"},{"iata":"CTM","icao":"MMCM","name":"Chetumal International Airport","city":"Chetumal","country":"MX","lat":18.504985,"lng":-88.328018,"tz":"America/Cancun"},{"iata":"CTN","icao":"YCKN","name":"Cooktown Airport","city":"","country":"AU","lat":-15.443649,"lng":145.183221,"tz":"Australia/Brisbane"},{"iata":"CTS","icao":"RJCC","name":"New Chitose Airport","city":"Sapporo","country":"JP","lat":42.774753,"lng":141.690414,"tz":"Asia/Tokyo"},{"iata":"CTU","icao":"ZUUU","name":"Chengdu Shuangliu International Airport","city":"Chengdu (Shuangliu)","country":"CN","lat":30.558257,"lng":103.945966,"tz":"Asia/Shanghai"},{"iata":"CUC","icao":"SKCC","name":"Camilo Daza International Airport","city":"Cúcuta","country":"CO","lat":7.92757,"lng":-72.5115,"tz":"America/Bogota"},{"iata":"CUE","icao":"SECU","name":"Mariscal Lamar Airport","city":"Cuenca","country":"EC","lat":-2.88947,"lng":-78.984398,"tz":"America/Guayaquil"},{"iata":"CUF","icao":"LIMZ","name":"Cuneo International Airport","city":"Levaldigi (CN)","country":"IT","lat":44.547458,"lng":7.623045,"tz":"Europe/Rome"},{"iata":"CUK","icao":null,"name":"Caye Caulker Airport","city":"Caye Caulker","country":"BZ","lat":17.735015,"lng":-88.032862,"tz":"America/Belize"},{"iata":"CUL","icao":"MMCL","name":"Bachigualato Federal International Airport","city":"Culiacán","country":"MX","lat":24.76504,"lng":-107.475228,"tz":"America/Mazatlan"},{"iata":"CUM","icao":"SVCU","name":"Antonio José de Sucre Airport","city":"Cumaná","country":"VE","lat":10.450333,"lng":-64.13047,"tz":"America/Caracas"},{"iata":"CUN","icao":"MMUN","name":"Cancún International Airport","city":"Cancún","country":"MX","lat":21.040817,"lng":-86.87347,"tz":"America/Cancun"},{"iata":"CUP","icao":"SVCP","name":"General Francisco Bermúdez Airport","city":"Carúpano","country":"VE","lat":10.660014,"lng":-63.261681,"tz":"America/Caracas"},{"iata":"CUQ","icao":"YCOE","name":"Coen Airport","city":"Coen","country":"AU","lat":-13.761133,"lng":143.113311,"tz":"Australia/Brisbane"},{"iata":"CUR","icao":"TNCC","name":"Hato International Airport","city":"Willemstad","country":"CW","lat":12.1889,"lng":-68.959801,"tz":"America/Curacao"},{"iata":"CUU","icao":"MMCU","name":"General Roberto Fierro Villalobos International Airport","city":"Chihuahua","country":"MX","lat":28.702649,"lng":-105.963764,"tz":"America/Chihuahua"},{"iata":"CUZ","icao":"SPZO","name":"Alejandro Velasco Astete International Airport","city":"Cusco","country":"PE","lat":-13.5357,"lng":-71.938797,"tz":"America/Lima"},{"iata":"CVG","icao":"KCVG","name":"Cincinnati Northern Kentucky International Airport","city":"Cincinnati / Covington","country":"US","lat":39.048801,"lng":-84.667801,"tz":"America/New_York"},{"iata":"CVM","icao":"MMCV","name":"General Pedro Jose Mendez International Airport","city":"Ciudad Victoria","country":"MX","lat":23.7033,"lng":-98.956497,"tz":"America/Monterrey"},{"iata":"CVN","icao":"KCVN","name":"Clovis Municipal Airport","city":"Clovis","country":"US","lat":34.426594,"lng":-103.078794,"tz":"America/Chicago"},{"iata":"CVQ","icao":"YCAR","name":"Carnarvon Airport","city":"Carnarvon","country":"AU","lat":-24.884337,"lng":113.666393,"tz":"Australia/Perth"},{"iata":"CWA","icao":"KCWA","name":"Central Wisconsin Airport","city":"Mosinee","country":"US","lat":44.777448,"lng":-89.670238,"tz":"America/Chicago"},{"iata":"CWB","icao":"SBCT","name":"Curitiba-Afonso Pena International Airport","city":"Curitiba","country":"BR","lat":-25.5285,"lng":-49.1758,"tz":"America/Sao_Paulo"},{"iata":"CWC","icao":"UKLN","name":"Chernivtsi International Airport","city":"Chernivtsi","country":"UA","lat":48.2593,"lng":25.980801,"tz":"Europe/Kiev"},{"iata":"CWJ","icao":"ZPCW","name":"Cangyuan Washan Airport","city":"Lincang (Cangyuan)","country":"CN","lat":23.276331,"lng":99.373169,"tz":"Asia/Yangon"},{"iata":"CWL","icao":"EGFF","name":"Cardiff International Airport","city":"Cardiff","country":"GB","lat":51.396702,"lng":-3.34333,"tz":"Europe/London"},{"iata":"CXB","icao":"VGCB","name":"Cox's Bazar Airport","city":"Cox's Bazar","country":"BD","lat":21.457517,"lng":91.963263,"tz":"Asia/Dhaka"},{"iata":"CXI","icao":"PLCH","name":"Cassidy International Airport","city":"Kiritimati","country":"KI","lat":1.986278,"lng":-157.350011,"tz":"Pacific/Kiritimati"},{"iata":"CXJ","icao":"SBCX","name":"Hugo Cantergiani Regional Airport","city":"Caxias Do Sul","country":"BR","lat":-29.197183,"lng":-51.187647,"tz":"America/Sao_Paulo"},{"iata":"CXP","icao":"WAHL","name":"Tunggul Wulung Airport","city":"Cilacap","country":"ID","lat":-7.64506,"lng":109.033997,"tz":"Asia/Jakarta"},{"iata":"CXR","icao":"VVCR","name":"Cam Ranh International Airport / Cam Ranh Air Base","city":"Nha Trang/nha Trang aiurportCam Ranh","country":"VN","lat":11.9982,"lng":109.219002,"tz":"Asia/Ho_Chi_Minh"},{"iata":"CYA","icao":"MTCA","name":"Antoine-Simon International Airport","city":"Les Cayes","country":"HT","lat":18.271099,"lng":-73.7883,"tz":"America/Port-au-Prince"},{"iata":"CYB","icao":"MWCB","name":"Charles Kirkconnell International Airport","city":"West End","country":"KY","lat":19.687,"lng":-79.882797,"tz":"America/Cayman"},{"iata":"CYC","icao":null,"name":"Caye Chapel Airport","city":"Caye Chapel","country":"BZ","lat":17.683792,"lng":-88.044985,"tz":"America/Belize"},{"iata":"CYI","icao":"RCKU","name":"Chiayi Airport","city":"Shuishang","country":"TW","lat":23.462577,"lng":120.390544,"tz":"Asia/Taipei"},{"iata":"CYO","icao":"MUCL","name":"Vilo Acuña International Airport","city":"Cayo Largo del Sur","country":"CU","lat":21.616501,"lng":-81.545998,"tz":"America/Havana"},{"iata":"CYP","icao":"RPVC","name":"Calbayog Airport","city":"Calbayog City","country":"PH","lat":12.072574,"lng":124.54508,"tz":"Asia/Manila"},{"iata":"CYS","icao":"KCYS","name":"Cheyenne Regional Jerry Olson Field","city":"Cheyenne","country":"US","lat":41.155701,"lng":-104.811997,"tz":"America/Denver"},{"iata":"CYX","icao":"UESS","name":"Cherskiy Airport","city":"Cherskiy","country":"RU","lat":68.740601,"lng":161.337997,"tz":"Asia/Anadyr"},{"iata":"CYZ","icao":"RPUY","name":"Cauayan Airport","city":"Cauayan City","country":"PH","lat":16.929899,"lng":121.752998,"tz":"Asia/Manila"},{"iata":"CZE","icao":"SVCR","name":"José Leonardo Chirinos Airport","city":"Coro","country":"VE","lat":11.414944,"lng":-69.680901,"tz":"America/Caracas"},{"iata":"CZH","icao":null,"name":"Corozal Airport","city":"Corozal","country":"BZ","lat":18.3822,"lng":-88.411903,"tz":"America/Belize"},{"iata":"CZL","icao":"DABC","name":"Mohamed Boudiaf International Airport","city":"Constantine","country":"DZ","lat":36.276001,"lng":6.62039,"tz":"Africa/Algiers"},{"iata":"CZM","icao":"MMCZ","name":"Cozumel International Airport","city":"Cozumel","country":"MX","lat":20.514922,"lng":-86.928538,"tz":"America/Cancun"},{"iata":"CZS","icao":"SBCZ","name":"Cruzeiro do Sul Airport","city":"Cruzeiro Do Sul","country":"BR","lat":-7.59991,"lng":-72.769501,"tz":"America/Rio_Branco"},{"iata":"CZU","icao":"SKCZ","name":"Las Brujas Airport","city":"Corozal","country":"CO","lat":9.33274,"lng":-75.2856,"tz":"America/Bogota"},{"iata":"CZX","icao":"ZSCG","name":"Changzhou Benniu International Airport","city":"Changzhou","country":"CN","lat":31.920485,"lng":119.77546,"tz":"Asia/Shanghai"},{"iata":"DAB","icao":"KDAB","name":"Daytona Beach International Airport","city":"Daytona Beach","country":"US","lat":29.18255,"lng":-81.059464,"tz":"America/New_York"},{"iata":"DAC","icao":"VGHS","name":"Hazrat Shahjalal International Airport","city":"Dhaka","country":"BD","lat":23.843347,"lng":90.397783,"tz":"Asia/Dhaka"},